[{"name": "Abakan", "country": "Russia", "cc": "RU", "lat": 53.7037, "lon": 91.445}, {"name": "Abidjan", "country": "Ivory Coast", "cc": "CI", "lat": 5.3219, "lon": -4.042}, {"name": "Aboa Station", "country": "Antarctica", "cc": "AQ", "lat": -75.0496, "lon": -13.4167}, {"name": "Abu Dhabi", "country": "United Arab Emirates", "cc": "AE", "lat": 24.4667, "lon": 54.3666}, {"name": "Abuja", "country": "Nigeria", "cc": "NG", "lat": 9.0853, "lon": 7.5314}, {"name": "Abéché", "country": "Chad", "cc": "TD", "lat": 13.84, "lon": 20.83}, {"name": "Acapulco", "country": "Mexico", "cc": "MX", "lat": 16.85, "lon": -99.916}, {"name": "Accra", "country": "Ghana", "cc": "GH", "lat": 5.552, "lon": -0.2187}, {"name": "Adana", "country": "Turkey", "cc": "TR", "lat": 36.9969, "lon": 35.3181}, {"name": "Addis Ababa", "country": "Ethiopia", "cc": "ET", "lat": 9.0353, "lon": 38.6981}, {"name": "Adelaide", "country": "Australia", "cc": "AU", "lat": -34.933, "lon": 138.5981}, {"name": "Aden", "country": "Yemen", "cc": "YE", "lat": 12.7797, "lon": 45.0095}, {"name": "Agadez", "country": "Niger", "cc": "NE", "lat": 16.9959, "lon": 7.9828}, {"name": "Agana", "country": "Guam", "cc": "GU", "lat": 13.47, "lon": 144.75}, {"name": "Agra", "country": "India", "cc": "IN", "lat": 27.1724, "lon": 78.0131}, {"name": "Ahmedabad", "country": "India", "cc": "IN", "lat": 23.032, "lon": 72.5781}, {"name": "Ahvaz", "country": "Iran", "cc": "IR", "lat": 31.2819, "lon": 48.7181}, {"name": "Ajaccio", "country": "France", "cc": "FR", "lat": 41.9271, "lon": 8.7283}, {"name": "Akola", "country": "India", "cc": "IN", "lat": 20.71, "lon": 77.01}, {"name": "Al Jawf", "country": "Libya", "cc": "LY", "lat": 24.2, "lon": 23.29}, {"name": "Albany", "country": "Australia", "cc": "AU", "lat": -35.0169, "lon": 117.8916}, {"name": "Albuquerque", "country": "United States of America", "cc": "US", "lat": 35.105, "lon": -106.6413}, {"name": "Aldan", "country": "Russia", "cc": "RU", "lat": 58.603, "lon": 125.3894}, {"name": "Aleppo", "country": "Syria", "cc": "SY", "lat": 36.2319, "lon": 37.1681}, {"name": "Alexandria", "country": "Egypt", "cc": "EG", "lat": 31.202, "lon": 29.9481}, {"name": "Algiers", "country": "Algeria", "cc": "DZ", "lat": 36.765, "lon": 3.0486}, {"name": "Alice Springs", "country": "Australia", "cc": "AU", "lat": -23.701, "lon": 133.88}, {"name": "Aligarh", "country": "India", "cc": "IN", "lat": 27.8942, "lon": 78.0598}, {"name": "Allahabad", "country": "India", "cc": "IN", "lat": 25.4569, "lon": 81.8381}, {"name": "Almaty", "country": "Kazakhstan", "cc": "KZ", "lat": 43.3269, "lon": 76.9131}, {"name": "Alta Floresta", "country": "Brazil", "cc": "BR", "lat": -9.9, "lon": -55.91}, {"name": "Altay", "country": "China", "cc": "CN", "lat": 47.8666, "lon": 88.1166}, {"name": "Alvorada", "country": "Brazil", "cc": "BR", "lat": -12.47, "lon": -49.082}, {"name": "Amarillo", "country": "United States of America", "cc": "US", "lat": 35.23, "lon": -101.83}, {"name": "Ambarchik", "country": "Russia", "cc": "RU", "lat": 69.651, "lon": 162.3336}, {"name": "Ambon", "country": "Indonesia", "cc": "ID", "lat": -3.7167, "lon": 128.2}, {"name": "Amiens", "country": "France", "cc": "FR", "lat": 49.9004, "lon": 2.3}, {"name": "Amman", "country": "Jordan", "cc": "JO", "lat": 31.952, "lon": 35.9314}, {"name": "Amritsar", "country": "India", "cc": "IN", "lat": 31.6419, "lon": 74.868}, {"name": "Amsterdam", "country": "Netherlands", "cc": "NL", "lat": 52.3519, "lon": 4.9147}, {"name": "AmundseniScott South Pole Station", "country": "Antarctica", "cc": "AQ", "lat": -90.0, "lon": 176.9945}, {"name": "An Najaf", "country": "Iraq", "cc": "IQ", "lat": 32.0003, "lon": 44.3354}, {"name": "Anadyr", "country": "Russia", "cc": "RU", "lat": 64.737, "lon": 177.475}, {"name": "Anchorage", "country": "United States of America", "cc": "US", "lat": 61.22, "lon": -149.9002}, {"name": "Ancona", "country": "Italy", "cc": "IT", "lat": 43.6004, "lon": 13.4999}, {"name": "Andijon", "country": "Uzbekistan", "cc": "UZ", "lat": 40.79, "lon": 72.34}, {"name": "Andorra", "country": "Andorra", "cc": "AD", "lat": 42.5, "lon": 1.5165}, {"name": "Angarsk", "country": "Russia", "cc": "RU", "lat": 52.56, "lon": 103.92}, {"name": "Ankang", "country": "China", "cc": "CN", "lat": 32.68, "lon": 109.02}, {"name": "Ankara", "country": "Turkey", "cc": "TR", "lat": 39.9292, "lon": 32.8624}, {"name": "Annaba", "country": "Algeria", "cc": "DZ", "lat": 36.92, "lon": 7.76}, {"name": "Anshan", "country": "China", "cc": "CN", "lat": 41.117, "lon": 122.9381}, {"name": "Antananarivo", "country": "Madagascar", "cc": "MG", "lat": -18.9147, "lon": 47.5147}, {"name": "Antofagasta", "country": "Chile", "cc": "CL", "lat": -23.65, "lon": -70.4}, {"name": "Antsiranana", "country": "Madagascar", "cc": "MG", "lat": -12.2765, "lon": 49.3115}, {"name": "Aosta", "country": "Italy", "cc": "IT", "lat": 45.737, "lon": 7.315}, {"name": "Apia", "country": "Samoa", "cc": "WS", "lat": -13.8415, "lon": -171.7386}, {"name": "Aqtobe", "country": "Kazakhstan", "cc": "KZ", "lat": 50.28, "lon": 57.17}, {"name": "Archangel", "country": "Russia", "cc": "RU", "lat": 64.575, "lon": 40.545}, {"name": "Arctic Bay", "country": "Canada", "cc": "CA", "lat": 73.0333, "lon": -85.1666}, {"name": "Arequipa", "country": "Peru", "cc": "PE", "lat": -16.418, "lon": -71.532}, {"name": "Arica", "country": "Chile", "cc": "CL", "lat": -18.5, "lon": -70.29}, {"name": "Armidale", "country": "Australia", "cc": "AU", "lat": -30.5123, "lon": 151.6675}, {"name": "Artigas Base", "country": "Antarctica", "cc": "AQ", "lat": -62.1739, "lon": -58.8639}, {"name": "Arua", "country": "Uganda", "cc": "UG", "lat": 3.0204, "lon": 30.9}, {"name": "Arusha", "country": "Tanzania", "cc": "TZ", "lat": -3.36, "lon": 36.67}, {"name": "Arviat", "country": "Canada", "cc": "CA", "lat": 61.1086, "lon": -94.0586}, {"name": "Asansol", "country": "India", "cc": "IN", "lat": 23.6853, "lon": 86.9814}, {"name": "Ashgabat", "country": "Turkmenistan", "cc": "TM", "lat": 37.95, "lon": 58.3833}, {"name": "Asmara", "country": "Eritrea", "cc": "ER", "lat": 15.3333, "lon": 38.9333}, {"name": "Assab", "country": "Eritrea", "cc": "ER", "lat": 13.01, "lon": 42.73}, {"name": "Astana", "country": "Kazakhstan", "cc": "KZ", "lat": 51.1811, "lon": 71.4278}, {"name": "Astrakhan", "country": "Russia", "cc": "RU", "lat": 46.3487, "lon": 48.055}, {"name": "Asunción", "country": "Paraguay", "cc": "PY", "lat": -25.2945, "lon": -57.6435}, {"name": "Aswan", "country": "Egypt", "cc": "EG", "lat": 24.0875, "lon": 32.8989}, {"name": "Asyut", "country": "Egypt", "cc": "EG", "lat": 27.19, "lon": 31.1799}, {"name": "Atakpamé", "country": "Togo", "cc": "TG", "lat": 7.53, "lon": 1.12}, {"name": "Atar", "country": "Mauritania", "cc": "MR", "lat": 20.5166, "lon": -13.05}, {"name": "Athens", "country": "Greece", "cc": "GR", "lat": 37.9853, "lon": 23.7314}, {"name": "Atlanta", "country": "United States of America", "cc": "US", "lat": 33.832, "lon": -84.4019}, {"name": "Atyrau", "country": "Kazakhstan", "cc": "KZ", "lat": 47.1127, "lon": 51.92}, {"name": "Auckland", "country": "New Zealand", "cc": "NZ", "lat": -36.8481, "lon": 174.763}, {"name": "Augusta", "country": "United States of America", "cc": "US", "lat": 44.3106, "lon": -69.78}, {"name": "Aurangabad", "country": "India", "cc": "IN", "lat": 19.8976, "lon": 75.3184}, {"name": "Austin", "country": "United States of America", "cc": "US", "lat": 30.2689, "lon": -97.7447}, {"name": "Ayoun el Atrous", "country": "Mauritania", "cc": "MR", "lat": 16.6666, "lon": -9.6167}, {"name": "Baghdad", "country": "Iraq", "cc": "IQ", "lat": 33.3406, "lon": 44.3919}, {"name": "Baguio City", "country": "Philippines", "cc": "PH", "lat": 16.43, "lon": 120.5699}, {"name": "Bahir Dar", "country": "Ethiopia", "cc": "ET", "lat": 11.6001, "lon": 37.3833}, {"name": "Bahía Blanca", "country": "Argentina", "cc": "AR", "lat": -38.74, "lon": -62.265}, {"name": "Baku", "country": "Azerbaijan", "cc": "AZ", "lat": 40.3972, "lon": 49.8603}, {"name": "Balikpapan", "country": "Indonesia", "cc": "ID", "lat": -1.25, "lon": 116.83}, {"name": "Baltimore", "country": "United States of America", "cc": "US", "lat": 39.3019, "lon": -76.6219}, {"name": "Bamako", "country": "Mali", "cc": "ML", "lat": 12.652, "lon": -8.002}, {"name": "Bambari", "country": "Central African Republic", "cc": "CF", "lat": 5.762, "lon": 20.6672}, {"name": "Bamenda", "country": "Cameroon", "cc": "CM", "lat": 5.96, "lon": 10.15}, {"name": "Banda Aceh", "country": "Indonesia", "cc": "ID", "lat": 5.55, "lon": 95.32}, {"name": "Bandar Lampung", "country": "Indonesia", "cc": "ID", "lat": -5.4281, "lon": 105.2681}, {"name": "Bandar Seri Begawan", "country": "Brunei", "cc": "BN", "lat": 4.8833, "lon": 114.9333}, {"name": "Bandar-e-Abbas", "country": "Iran", "cc": "IR", "lat": 27.2041, "lon": 56.2721}, {"name": "Bandjarmasin", "country": "Indonesia", "cc": "ID", "lat": -3.33, "lon": 114.5801}, {"name": "Bandundu", "country": "Congo (Kinshasa)", "cc": "CD", "lat": -3.31, "lon": 17.38}, {"name": "Bandung", "country": "Indonesia", "cc": "ID", "lat": -6.9481, "lon": 107.5681}, {"name": "Bangalore", "country": "India", "cc": "IN", "lat": 12.9719, "lon": 77.5581}, {"name": "Banghazi", "country": "Libya", "cc": "LY", "lat": 32.1187, "lon": 20.0648}, {"name": "Bangkok", "country": "Thailand", "cc": "TH", "lat": 13.7519, "lon": 100.5147}, {"name": "Bangui", "country": "Central African Republic", "cc": "CF", "lat": 4.3666, "lon": 18.5583}, {"name": "Banja Luka", "country": "Bosnia and Herzegovina", "cc": "BA", "lat": 44.7804, "lon": 17.18}, {"name": "Banjul", "country": "The Gambia", "cc": "GM", "lat": 13.4539, "lon": -16.5917}, {"name": "Baoshan", "country": "China", "cc": "CN", "lat": 25.12, "lon": 99.15}, {"name": "Baotou", "country": "China", "cc": "CN", "lat": 40.6542, "lon": 109.8201}, {"name": "Barcelona", "country": "Spain", "cc": "ES", "lat": 41.3852, "lon": 2.1814}, {"name": "Bari", "country": "Italy", "cc": "IT", "lat": 41.1142, "lon": 16.8728}, {"name": "Barnaul", "country": "Russia", "cc": "RU", "lat": 53.355, "lon": 83.745}, {"name": "Barranquilla", "country": "Colombia", "cc": "CO", "lat": 10.9619, "lon": -74.8019}, {"name": "Barreiras", "country": "Brazil", "cc": "BR", "lat": -12.14, "lon": -45.0}, {"name": "Base Presidente Montalva", "country": "Antarctica", "cc": "AQ", "lat": -62.1827, "lon": -58.9077}, {"name": "Basra", "country": "Iraq", "cc": "IQ", "lat": 30.5155, "lon": 47.8116}, {"name": "Basse-terre", "country": "France", "cc": "GP", "lat": 16.0104, "lon": -61.7055}, {"name": "Basseterre", "country": "Saint Kitts and Nevis", "cc": "KN", "lat": 17.302, "lon": -62.717}, {"name": "Batagay", "country": "Russia", "cc": "RU", "lat": 67.656, "lon": 134.635}, {"name": "Baton Rouge", "country": "United States of America", "cc": "US", "lat": 30.4579, "lon": -91.1402}, {"name": "Battambang", "country": "Cambodia", "cc": "KH", "lat": 13.1, "lon": 103.2}, {"name": "Batumi", "country": "Georgia", "cc": "GE", "lat": 41.6, "lon": 41.63}, {"name": "Beian", "country": "China", "cc": "CN", "lat": 48.239, "lon": 126.482}, {"name": "Beijing", "country": "China", "cc": "CN", "lat": 39.9308, "lon": 116.3863}, {"name": "Beira", "country": "Mozambique", "cc": "MZ", "lat": -19.82, "lon": 34.87}, {"name": "Beirut", "country": "Lebanon", "cc": "LB", "lat": 33.8739, "lon": 35.5078}, {"name": "Belfast", "country": "United Kingdom", "cc": "GB", "lat": 54.6, "lon": -5.96}, {"name": "Belgrade", "country": "Serbia", "cc": "RS", "lat": 44.8206, "lon": 20.466}, {"name": "Belgrano II Base", "country": "Antarctica", "cc": "AQ", "lat": -77.8663, "lon": -34.6167}, {"name": "Belmopan", "country": "Belize", "cc": "BZ", "lat": 17.252, "lon": -88.7671}, {"name": "Belo Horizonte", "country": "Brazil", "cc": "BR", "lat": -19.9131, "lon": -43.917}, {"name": "Belém", "country": "Brazil", "cc": "BR", "lat": -1.4481, "lon": -48.482}, {"name": "Bendigo", "country": "Australia", "cc": "AU", "lat": -36.76, "lon": 144.28}, {"name": "Benguela", "country": "Angola", "cc": "AO", "lat": -12.5783, "lon": 13.4072}, {"name": "Benin City", "country": "Nigeria", "cc": "NG", "lat": 6.3424, "lon": 5.6181}, {"name": "Berbera", "country": "Somaliland", "cc": "-99", "lat": 10.4356, "lon": 45.0164}, {"name": "Bergen", "country": "Norway", "cc": "NO", "lat": 60.391, "lon": 5.3245}, {"name": "Berlin", "country": "Germany", "cc": "DE", "lat": 52.5238, "lon": 13.3996}, {"name": "Bern", "country": "Switzerland", "cc": "CH", "lat": 46.9167, "lon": 7.467}, {"name": "Besançon", "country": "France", "cc": "FR", "lat": 47.23, "lon": 6.03}, {"name": "Bethel", "country": "United States of America", "cc": "US", "lat": 60.7933, "lon": -161.7558}, {"name": "Bhagalpur", "country": "India", "cc": "IN", "lat": 25.23, "lon": 86.98}, {"name": "Bhilai", "country": "India", "cc": "IN", "lat": 21.2186, "lon": 81.4314}, {"name": "Bhopal", "country": "India", "cc": "IN", "lat": 23.2519, "lon": 77.408}, {"name": "Bhubaneshwar", "country": "India", "cc": "IN", "lat": 20.2724, "lon": 85.8254}, {"name": "Bilbao", "country": "Spain", "cc": "ES", "lat": 43.25, "lon": -2.93}, {"name": "Billings", "country": "United States of America", "cc": "US", "lat": 45.7883, "lon": -108.54}, {"name": "Bir Lehlou", "country": "Western Sahara", "cc": "EH", "lat": 26.1192, "lon": -9.6525}, {"name": "Birmingham", "country": "United Kingdom", "cc": "GB", "lat": 52.4769, "lon": -1.9219}, {"name": "Bishkek", "country": "Kyrgyzstan", "cc": "KG", "lat": 42.875, "lon": 74.5833}, {"name": "Bismarck", "country": "United States of America", "cc": "US", "lat": 46.8083, "lon": -100.7833}, {"name": "Bissau", "country": "Guinea Bissau", "cc": "GW", "lat": 11.865, "lon": -15.5984}, {"name": "Blagoveshchensk", "country": "Russia", "cc": "RU", "lat": 50.2666, "lon": 127.5333}, {"name": "Blantyre", "country": "Malawi", "cc": "MW", "lat": -15.79, "lon": 34.9899}, {"name": "Blenheim", "country": "New Zealand", "cc": "NZ", "lat": -41.5135, "lon": 173.955}, {"name": "Bloemfontein", "country": "South Africa", "cc": "ZA", "lat": -29.12, "lon": 26.2299}, {"name": "Boa Vista", "country": "Brazil", "cc": "BR", "lat": 2.8161, "lon": -60.666}, {"name": "Bobo Dioulasso", "country": "Burkina Faso", "cc": "BF", "lat": 11.18, "lon": -4.29}, {"name": "Bogota", "country": "Colombia", "cc": "CO", "lat": 4.5984, "lon": -74.0853}, {"name": "Boise", "country": "United States of America", "cc": "US", "lat": 43.6086, "lon": -116.2275}, {"name": "Bologna", "country": "Italy", "cc": "IT", "lat": 44.5004, "lon": 11.34}, {"name": "Bombo", "country": "Uganda", "cc": "UG", "lat": 0.5833, "lon": 32.5333}, {"name": "Bordeaux", "country": "France", "cc": "FR", "lat": 44.852, "lon": -0.597}, {"name": "Bose", "country": "China", "cc": "CN", "lat": 23.8997, "lon": 106.6133}, {"name": "Boston", "country": "United States of America", "cc": "US", "lat": 42.3319, "lon": -71.072}, {"name": "Bouaké", "country": "Ivory Coast", "cc": "CI", "lat": 7.69, "lon": -5.03}, {"name": "Brandon", "country": "Canada", "cc": "CA", "lat": 49.8333, "lon": -99.95}, {"name": "Brasília", "country": "Brazil", "cc": "BR", "lat": -15.7814, "lon": -47.918}, {"name": "Bratislava", "country": "Slovakia", "cc": "SK", "lat": 48.15, "lon": 17.117}, {"name": "Bratsk", "country": "Russia", "cc": "RU", "lat": 56.157, "lon": 101.615}, {"name": "Brazzaville", "country": "Congo (Brazzaville)", "cc": "CG", "lat": -4.2572, "lon": 15.2827}, {"name": "Brest", "country": "Belarus", "cc": "BY", "lat": 52.1, "lon": 23.7}, {"name": "Bridgeport", "country": "United States of America", "cc": "US", "lat": 41.1819, "lon": -73.2019}, {"name": "Bridgetown", "country": "Barbados", "cc": "BB", "lat": 13.102, "lon": -59.6165}, {"name": "Brisbane", "country": "Australia", "cc": "AU", "lat": -27.4531, "lon": 153.0331}, {"name": "Broken Hill", "country": "Australia", "cc": "AU", "lat": -31.95, "lon": 141.4331}, {"name": "Broome", "country": "Australia", "cc": "AU", "lat": -17.9618, "lon": 122.2308}, {"name": "Brussels", "country": "Belgium", "cc": "BE", "lat": 50.8353, "lon": 4.3314}, {"name": "Bryansk", "country": "Russia", "cc": "RU", "lat": 53.26, "lon": 34.43}, {"name": "Bucharest", "country": "Romania", "cc": "RO", "lat": 44.4353, "lon": 26.098}, {"name": "Budapest", "country": "Hungary", "cc": "HU", "lat": 47.502, "lon": 19.0814}, {"name": "Buenos Aires", "country": "Argentina", "cc": "AR", "lat": -34.6006, "lon": -58.3995}, {"name": "Buffalo", "country": "United States of America", "cc": "US", "lat": 42.8819, "lon": -78.8819}, {"name": "Bujumbura", "country": "Burundi", "cc": "BI", "lat": -3.3761, "lon": 29.36}, {"name": "Bukachacha", "country": "Russia", "cc": "RU", "lat": 52.9833, "lon": 116.9166}, {"name": "Bukhara", "country": "Uzbekistan", "cc": "UZ", "lat": 39.78, "lon": 64.43}, {"name": "Bulawayo", "country": "Zimbabwe", "cc": "ZW", "lat": -20.17, "lon": 28.58}, {"name": "Bumba", "country": "Congo (Kinshasa)", "cc": "CD", "lat": 2.19, "lon": 22.46}, {"name": "Bur Said", "country": "Egypt", "cc": "EG", "lat": 31.26, "lon": 32.29}, {"name": "Burlington", "country": "United States of America", "cc": "US", "lat": 44.4758, "lon": -73.2125}, {"name": "Bursa", "country": "Turkey", "cc": "TR", "lat": 40.2019, "lon": 29.0681}, {"name": "Busan", "country": "South Korea", "cc": "KR", "lat": 35.097, "lon": 129.0081}, {"name": "Busselton", "country": "Australia", "cc": "AU", "lat": -33.6564, "lon": 115.3487}, {"name": "Butembo", "country": "Congo (Kinshasa)", "cc": "CD", "lat": 0.13, "lon": 29.28}, {"name": "Caen", "country": "France", "cc": "FR", "lat": 49.1838, "lon": -0.35}, {"name": "Cagliari", "country": "Italy", "cc": "IT", "lat": 39.2224, "lon": 9.104}, {"name": "Cairns", "country": "Australia", "cc": "AU", "lat": -16.8878, "lon": 145.7633}, {"name": "Cairo", "country": "Egypt", "cc": "EG", "lat": 30.0519, "lon": 31.248}, {"name": "Calgary", "country": "Canada", "cc": "CA", "lat": 51.0849, "lon": -114.0819}, {"name": "Cali", "country": "Colombia", "cc": "CO", "lat": 3.4019, "lon": -76.5019}, {"name": "Cambridge Bay", "country": "Canada", "cc": "CA", "lat": 69.117, "lon": -105.0333}, {"name": "Campeche", "country": "Mexico", "cc": "MX", "lat": 19.83, "lon": -90.5}, {"name": "Campinas", "country": "Brazil", "cc": "BR", "lat": -22.8981, "lon": -47.102}, {"name": "Campo Grande", "country": "Brazil", "cc": "BR", "lat": -20.4481, "lon": -54.6186}, {"name": "Campobasso", "country": "Italy", "cc": "IT", "lat": 41.563, "lon": 14.656}, {"name": "Canberra", "country": "Australia", "cc": "AU", "lat": -35.283, "lon": 149.129}, {"name": "Cancún", "country": "Mexico", "cc": "MX", "lat": 21.17, "lon": -86.83}, {"name": "Cape Town", "country": "South Africa", "cc": "ZA", "lat": -33.9181, "lon": 18.433}, {"name": "Capitan Arturo Prat Station", "country": "Antarctica", "cc": "AQ", "lat": -62.4995, "lon": -59.6833}, {"name": "Caracas", "country": "Venezuela", "cc": "VE", "lat": 10.5029, "lon": -66.919}, {"name": "Cardiff", "country": "United Kingdom", "cc": "GB", "lat": 51.5, "lon": -3.225}, {"name": "Carlini Base", "country": "Antarctica", "cc": "AQ", "lat": -62.2241, "lon": -58.6505}, {"name": "Cartagena", "country": "Colombia", "cc": "CO", "lat": 10.4017, "lon": -75.5163}, {"name": "Casablanca", "country": "Morocco", "cc": "MA", "lat": 33.6019, "lon": -7.6183}, {"name": "Casey Station", "country": "Antarctica", "cc": "AQ", "lat": -66.2861, "lon": 110.5362}, {"name": "Casper", "country": "United States of America", "cc": "US", "lat": 42.8666, "lon": -106.3125}, {"name": "Castries", "country": "Saint Lucia", "cc": "LC", "lat": 14.002, "lon": -61.0}, {"name": "Catania", "country": "Italy", "cc": "IT", "lat": 37.5, "lon": 15.08}, {"name": "Catanzaro", "country": "Italy", "cc": "IT", "lat": 38.9004, "lon": 16.6}, {"name": "Caxias", "country": "Brazil", "cc": "BR", "lat": -4.833, "lon": -43.35}, {"name": "Caxias do Sul", "country": "Brazil", "cc": "BR", "lat": -29.18, "lon": -51.17}, {"name": "Cayenne", "country": "France", "cc": "GF", "lat": 4.933, "lon": -52.33}, {"name": "Cebu", "country": "Philippines", "cc": "PH", "lat": 10.3219, "lon": 123.8981}, {"name": "Chandigarh", "country": "India", "cc": "IN", "lat": 30.7219, "lon": 76.7781}, {"name": "Changchun", "country": "China", "cc": "CN", "lat": 43.867, "lon": 125.338}, {"name": "Changsha", "country": "China", "cc": "CN", "lat": 28.2019, "lon": 112.968}, {"name": "Charleston", "country": "United States of America", "cc": "US", "lat": 38.3497, "lon": -81.6327}, {"name": "Charlottetown", "country": "Canada", "cc": "CA", "lat": 46.2493, "lon": -63.1313}, {"name": "Chelyabinsk", "country": "Russia", "cc": "RU", "lat": 55.1569, "lon": 61.4367}, {"name": "Chengdu", "country": "China", "cc": "CN", "lat": 30.6719, "lon": 104.0681}, {"name": "Chennai", "country": "India", "cc": "IN", "lat": 13.0919, "lon": 80.2781}, {"name": "Chesterfield Inlet", "country": "Canada", "cc": "CA", "lat": 63.3383, "lon": -90.7001}, {"name": "Cheyenne", "country": "United States of America", "cc": "US", "lat": 41.14, "lon": -104.8197}, {"name": "Chiang Mai", "country": "Thailand", "cc": "TH", "lat": 18.8, "lon": 98.98}, {"name": "Chicago", "country": "United States of America", "cc": "US", "lat": 41.8319, "lon": -87.752}, {"name": "Chifeng", "country": "China", "cc": "CN", "lat": 42.272, "lon": 118.948}, {"name": "Chihuahua", "country": "Mexico", "cc": "MX", "lat": 28.6469, "lon": -106.0869}, {"name": "Chimbote", "country": "Peru", "cc": "PE", "lat": -9.07, "lon": -78.57}, {"name": "Chipata", "country": "Zambia", "cc": "ZM", "lat": -13.6296, "lon": 32.64}, {"name": "Chita", "country": "Russia", "cc": "RU", "lat": 52.055, "lon": 113.465}, {"name": "Chittagong", "country": "Bangladesh", "cc": "BD", "lat": 22.3319, "lon": 91.798}, {"name": "Chitungwiza", "country": "Zimbabwe", "cc": "ZW", "lat": -18.0, "lon": 31.1}, {"name": "Chișinău", "country": "Moldova", "cc": "MD", "lat": 47.005, "lon": 28.8577}, {"name": "Chokurdakh", "country": "Russia", "cc": "RU", "lat": 70.6183, "lon": 147.8946}, {"name": "Chongqing", "country": "China", "cc": "CN", "lat": 29.5669, "lon": 106.593}, {"name": "Choybalsan", "country": "Mongolia", "cc": "MN", "lat": 48.0666, "lon": 114.506}, {"name": "Christchurch", "country": "New Zealand", "cc": "NZ", "lat": -43.535, "lon": 172.63}, {"name": "Churchill", "country": "Canada", "cc": "CA", "lat": 58.766, "lon": -94.166}, {"name": "Cincinnati", "country": "United States of America", "cc": "US", "lat": 39.1638, "lon": -84.4589}, {"name": "Ciudad Guayana", "country": "Venezuela", "cc": "VE", "lat": 8.37, "lon": -62.62}, {"name": "Ciudad del Este", "country": "Paraguay", "cc": "PY", "lat": -25.5167, "lon": -54.6161}, {"name": "Clermont-Ferrand", "country": "France", "cc": "FR", "lat": 45.78, "lon": 3.08}, {"name": "Cleveland", "country": "United States of America", "cc": "US", "lat": 41.4719, "lon": -81.6969}, {"name": "Coihaique", "country": "Chile", "cc": "CL", "lat": -45.57, "lon": -72.07}, {"name": "Coimbatore", "country": "India", "cc": "IN", "lat": 11.0019, "lon": 76.9481}, {"name": "Cold Bay", "country": "United States of America", "cc": "US", "lat": 55.2, "lon": -162.7151}, {"name": "Colima", "country": "Mexico", "cc": "MX", "lat": 19.23, "lon": -103.72}, {"name": "Colombo", "country": "Sri Lanka", "cc": "LK", "lat": 6.932, "lon": 79.8578}, {"name": "Colorado Springs", "country": "United States of America", "cc": "US", "lat": 38.863, "lon": -104.792}, {"name": "Columbia", "country": "United States of America", "cc": "US", "lat": 34.04, "lon": -80.9}, {"name": "Colíder", "country": "Brazil", "cc": "BR", "lat": -10.8173, "lon": -55.4506}, {"name": "Comodoro Rivadavia", "country": "Argentina", "cc": "AR", "lat": -45.87, "lon": -67.5}, {"name": "Conakry", "country": "Guinea", "cc": "GN", "lat": 9.5335, "lon": -13.6822}, {"name": "Concepción", "country": "Chile", "cc": "CL", "lat": -36.83, "lon": -73.05}, {"name": "Concordia Research Station", "country": "Antarctica", "cc": "AQ", "lat": -74.6663, "lon": 124.167}, {"name": "Constantine", "country": "Algeria", "cc": "DZ", "lat": 36.36, "lon": 6.5999}, {"name": "Constanța", "country": "Romania", "cc": "RO", "lat": 44.2027, "lon": 28.61}, {"name": "Copiapó", "country": "Chile", "cc": "CL", "lat": -27.36, "lon": -70.34}, {"name": "Corpus Christi", "country": "United States of America", "cc": "US", "lat": 27.7428, "lon": -97.4019}, {"name": "Corumbá", "country": "Brazil", "cc": "BR", "lat": -19.016, "lon": -57.65}, {"name": "Cotonou", "country": "Benin", "cc": "BJ", "lat": 6.402, "lon": 2.518}, {"name": "Cottica", "country": "Suriname", "cc": "SR", "lat": 3.85, "lon": -54.2333}, {"name": "Cruzeiro do Sul", "country": "Brazil", "cc": "BR", "lat": -7.63, "lon": -72.67}, {"name": "Cuenca", "country": "Ecuador", "cc": "EC", "lat": -2.9, "lon": -79.0}, {"name": "Cuiabá", "country": "Brazil", "cc": "BR", "lat": -15.5677, "lon": -56.0869}, {"name": "Culiacán", "country": "Mexico", "cc": "MX", "lat": 24.8319, "lon": -107.3819}, {"name": "Curitiba", "country": "Brazil", "cc": "BR", "lat": -25.4181, "lon": -49.3219}, {"name": "Cusco", "country": "Peru", "cc": "PE", "lat": -13.525, "lon": -71.9722}, {"name": "Cuttack", "country": "India", "cc": "IN", "lat": 20.47, "lon": 85.8899}, {"name": "Córdoba", "country": "Spain", "cc": "ES", "lat": 37.88, "lon": -4.77}, {"name": "Córdoba", "country": "Argentina", "cc": "AR", "lat": -31.398, "lon": -64.1842}, {"name": "Da Nang", "country": "Vietnam", "cc": "VN", "lat": 16.06, "lon": 108.25}, {"name": "Daejeon", "country": "South Korea", "cc": "KR", "lat": 36.3375, "lon": 127.4231}, {"name": "Dakar", "country": "Senegal", "cc": "SN", "lat": 14.7178, "lon": -17.4751}, {"name": "Dalandzadgad", "country": "Mongolia", "cc": "MN", "lat": 43.5836, "lon": 104.4403}, {"name": "Dalian", "country": "China", "cc": "CN", "lat": 38.9248, "lon": 121.6279}, {"name": "Dallas", "country": "United States of America", "cc": "US", "lat": 32.822, "lon": -96.842}, {"name": "Dalnegorsk", "country": "Russia", "cc": "RU", "lat": 44.5372, "lon": 135.5172}, {"name": "Damascus", "country": "Syria", "cc": "SY", "lat": 33.502, "lon": 36.2981}, {"name": "Daqing", "country": "China", "cc": "CN", "lat": 46.5819, "lon": 124.9981}, {"name": "Dar es Salaam", "country": "Tanzania", "cc": "TZ", "lat": -6.7981, "lon": 39.2664}, {"name": "Darwin", "country": "Australia", "cc": "AU", "lat": -12.4254, "lon": 130.85}, {"name": "Davao", "country": "Philippines", "cc": "PH", "lat": 7.112, "lon": 125.628}, {"name": "David", "country": "Panama", "cc": "PA", "lat": 8.4333, "lon": -82.4333}, {"name": "Davis Station", "country": "Antarctica", "cc": "AQ", "lat": -68.7777, "lon": 78.1407}, {"name": "Dawson City", "country": "Canada", "cc": "CA", "lat": 64.0666, "lon": -139.4167}, {"name": "Delhi", "country": "India", "cc": "IN", "lat": 28.6719, "lon": 77.2281}, {"name": "Denver", "country": "United States of America", "cc": "US", "lat": 39.7411, "lon": -104.986}, {"name": "Des Moines", "country": "United States of America", "cc": "US", "lat": 41.58, "lon": -93.62}, {"name": "Detroit", "country": "United States of America", "cc": "US", "lat": 42.3319, "lon": -83.082}, {"name": "Devonport", "country": "Australia", "cc": "AU", "lat": -41.1927, "lon": 146.3311}, {"name": "Dhaka", "country": "Bangladesh", "cc": "BD", "lat": 23.725, "lon": 90.4066}, {"name": "Dhanbad", "country": "India", "cc": "IN", "lat": 23.8023, "lon": 86.418}, {"name": "Dijon", "country": "France", "cc": "FR", "lat": 47.3304, "lon": 5.03}, {"name": "Dikson", "country": "Russia", "cc": "RU", "lat": 73.507, "lon": 80.5451}, {"name": "Dili", "country": "East Timor", "cc": "TL", "lat": -8.5594, "lon": 125.5795}, {"name": "Dire Dawa", "country": "Ethiopia", "cc": "ET", "lat": 9.59, "lon": 41.86}, {"name": "Dispur", "country": "India", "cc": "IN", "lat": 26.144, "lon": 91.7666}, {"name": "Djenné", "country": "Mali", "cc": "ML", "lat": 13.9, "lon": -4.55}, {"name": "Djibouti", "country": "Djibouti", "cc": "DJ", "lat": 11.595, "lon": 43.148}, {"name": "Dnipro", "country": "Ukraine", "cc": "UA", "lat": 48.4819, "lon": 34.9981}, {"name": "Dodoma", "country": "Tanzania", "cc": "TZ", "lat": -6.1833, "lon": 35.75}, {"name": "Doha", "country": "Qatar", "cc": "QA", "lat": 25.2866, "lon": 51.533}, {"name": "Donetsk", "country": "Ukraine", "cc": "UA", "lat": 48.0019, "lon": 37.828}, {"name": "Dongguan", "country": "China", "cc": "CN", "lat": 23.0508, "lon": 113.7428}, {"name": "Dongola", "country": "Sudan", "cc": "SD", "lat": 19.1666, "lon": 30.4833}, {"name": "Douala", "country": "Cameroon", "cc": "CM", "lat": 4.0624, "lon": 9.708}, {"name": "Douglas", "country": "Isle of Man", "cc": "IM", "lat": 54.1504, "lon": -4.48}, {"name": "Dresden", "country": "Germany", "cc": "DE", "lat": 51.05, "lon": 13.75}, {"name": "Dubai", "country": "United Arab Emirates", "cc": "AE", "lat": 25.2319, "lon": 55.278}, {"name": "Dubbo", "country": "Australia", "cc": "AU", "lat": -32.26, "lon": 148.5973}, {"name": "Dublin", "country": "Ireland", "cc": "IE", "lat": 53.335, "lon": -6.2509}, {"name": "Dulan", "country": "China", "cc": "CN", "lat": 36.1666, "lon": 98.2666}, {"name": "Dumont d'Urville Station", "country": "Antarctica", "cc": "AQ", "lat": -66.7751, "lon": 139.9637}, {"name": "Dund-Us", "country": "Mongolia", "cc": "MN", "lat": 48.0166, "lon": 91.6333}, {"name": "Dunedin", "country": "New Zealand", "cc": "NZ", "lat": -45.8854, "lon": 170.491}, {"name": "Dunhuang", "country": "China", "cc": "CN", "lat": 40.1427, "lon": 94.662}, {"name": "Durazno", "country": "Uruguay", "cc": "UY", "lat": -33.41, "lon": -56.51}, {"name": "Durban", "country": "South Africa", "cc": "ZA", "lat": -29.8631, "lon": 30.9781}, {"name": "Dushanbe", "country": "Tajikistan", "cc": "TJ", "lat": 38.56, "lon": 68.7739}, {"name": "East London", "country": "South Africa", "cc": "ZA", "lat": -32.97, "lon": 27.87}, {"name": "Ebolowa", "country": "Cameroon", "cc": "CM", "lat": 2.9, "lon": 11.15}, {"name": "Edinburgh", "country": "United Kingdom", "cc": "GB", "lat": 55.9483, "lon": -3.2191}, {"name": "Edmonton", "country": "Canada", "cc": "CA", "lat": 53.552, "lon": -113.5019}, {"name": "Ekibastuz", "country": "Kazakhstan", "cc": "KZ", "lat": 51.73, "lon": 75.3199}, {"name": "El Calafate", "country": "Argentina", "cc": "AR", "lat": -50.3333, "lon": -72.3}, {"name": "El Faiyum", "country": "Egypt", "cc": "EG", "lat": 29.31, "lon": 30.84}, {"name": "El Fasher", "country": "Sudan", "cc": "SD", "lat": 13.63, "lon": 25.35}, {"name": "El Obeid", "country": "Sudan", "cc": "SD", "lat": 13.1833, "lon": 30.2167}, {"name": "El Paso", "country": "United States of America", "cc": "US", "lat": 31.7819, "lon": -106.5119}, {"name": "Eldoret", "country": "Kenya", "cc": "KE", "lat": 0.52, "lon": 35.27}, {"name": "Elephant Island", "country": "Antarctica", "cc": "AQ", "lat": -61.9996, "lon": -58.0}, {"name": "Elko", "country": "United States of America", "cc": "US", "lat": 40.8325, "lon": -115.762}, {"name": "Enugu", "country": "Nigeria", "cc": "NG", "lat": 6.45, "lon": 7.5}, {"name": "Erdenet", "country": "Mongolia", "cc": "MN", "lat": 49.0533, "lon": 104.1183}, {"name": "Escudero Base", "country": "Antarctica", "cc": "AQ", "lat": -62.195, "lon": -58.9527}, {"name": "Esperanza Station", "country": "Antarctica", "cc": "AQ", "lat": -63.3753, "lon": -57.0259}, {"name": "Eureka", "country": "United States of America", "cc": "US", "lat": 40.8022, "lon": -124.1475}, {"name": "Fairbanks", "country": "United States of America", "cc": "US", "lat": 64.837, "lon": -147.7107}, {"name": "Fargo", "country": "United States of America", "cc": "US", "lat": 46.8772, "lon": -96.7894}, {"name": "Faridabad", "country": "India", "cc": "IN", "lat": 28.4353, "lon": 77.3147}, {"name": "Feira de Santana", "country": "Brazil", "cc": "BR", "lat": -12.25, "lon": -38.97}, {"name": "Fez", "country": "Morocco", "cc": "MA", "lat": 34.0565, "lon": -5.0023}, {"name": "Fianarantsoa", "country": "Madagascar", "cc": "MG", "lat": -21.4333, "lon": 47.0833}, {"name": "Flagstaff", "country": "United States of America", "cc": "US", "lat": 35.1981, "lon": -111.6505}, {"name": "Florence", "country": "Italy", "cc": "IT", "lat": 43.78, "lon": 11.25}, {"name": "Florianópolis", "country": "Brazil", "cc": "BR", "lat": -27.578, "lon": -48.522}, {"name": "Formosa", "country": "Argentina", "cc": "AR", "lat": -26.1728, "lon": -58.1828}, {"name": "Fort Good Hope", "country": "Canada", "cc": "CA", "lat": 66.2666, "lon": -128.6333}, {"name": "Fort McMurray", "country": "Canada", "cc": "CA", "lat": 56.7333, "lon": -111.3833}, {"name": "Fort Portal", "country": "Uganda", "cc": "UG", "lat": 0.671, "lon": 30.275}, {"name": "Fort Severn", "country": "Canada", "cc": "CA", "lat": 55.9833, "lon": -87.65}, {"name": "Fort Smith", "country": "Canada", "cc": "CA", "lat": 60.0, "lon": -111.8833}, {"name": "Fort St. John", "country": "Canada", "cc": "CA", "lat": 56.25, "lon": -120.8333}, {"name": "Fort-de-France", "country": "France", "cc": "MQ", "lat": 14.6104, "lon": -61.08}, {"name": "Fortaleza", "country": "Brazil", "cc": "BR", "lat": -3.7481, "lon": -38.5819}, {"name": "Franceville", "country": "Gabon", "cc": "GA", "lat": -1.6333, "lon": 13.5833}, {"name": "Francistown", "country": "Botswana", "cc": "BW", "lat": -21.17, "lon": 27.5}, {"name": "Frankfurt", "country": "Germany", "cc": "DE", "lat": 50.1, "lon": 8.675}, {"name": "Freeport", "country": "The Bahamas", "cc": "BS", "lat": 26.5333, "lon": -78.7}, {"name": "Freetown", "country": "Sierra Leone", "cc": "SL", "lat": 8.472, "lon": -13.2362}, {"name": "Fresno", "country": "United States of America", "cc": "US", "lat": 36.7477, "lon": -119.773}, {"name": "Ft. Worth", "country": "United States of America", "cc": "US", "lat": 32.74, "lon": -97.34}, {"name": "Fukuoka", "country": "Japan", "cc": "JP", "lat": 33.597, "lon": 130.4081}, {"name": "Funafuti", "country": "Tuvalu", "cc": "TV", "lat": -8.5167, "lon": 179.2166}, {"name": "Funchal", "country": "Portugal", "cc": "PT", "lat": 32.65, "lon": -16.88}, {"name": "Fuzhou", "country": "China", "cc": "CN", "lat": 26.0819, "lon": 119.2981}, {"name": "Gaborone", "country": "Botswana", "cc": "BW", "lat": -24.6463, "lon": 25.9119}, {"name": "Gao", "country": "Mali", "cc": "ML", "lat": 16.2666, "lon": -0.05}, {"name": "Garoua", "country": "Cameroon", "cc": "CM", "lat": 9.3, "lon": 13.39}, {"name": "Gaza", "country": "Palestine", "cc": "PS", "lat": 31.53, "lon": 34.445}, {"name": "Gdańsk", "country": "Poland", "cc": "PL", "lat": 54.36, "lon": 18.64}, {"name": "Gejiu", "country": "China", "cc": "CN", "lat": 23.38, "lon": 103.1501}, {"name": "Gen. O'Higgins Base", "country": "Antarctica", "cc": "AQ", "lat": -63.3284, "lon": -57.8896}, {"name": "Geneina", "country": "Sudan", "cc": "SD", "lat": 13.45, "lon": 22.44}, {"name": "General Santos", "country": "Philippines", "cc": "PH", "lat": 6.1108, "lon": 125.1747}, {"name": "Geneva", "country": "Switzerland", "cc": "CH", "lat": 46.21, "lon": 6.14}, {"name": "Genoa", "country": "Italy", "cc": "IT", "lat": 44.41, "lon": 8.93}, {"name": "George", "country": "South Africa", "cc": "ZA", "lat": -33.95, "lon": 22.45}, {"name": "George Town", "country": "Cayman Islands", "cc": "KY", "lat": 19.2804, "lon": -81.33}, {"name": "George Town", "country": "Malaysia", "cc": "MY", "lat": 5.4136, "lon": 100.3294}, {"name": "Georgetown", "country": "Guyana", "cc": "GY", "lat": 6.802, "lon": -58.167}, {"name": "Geraldton", "country": "Australia", "cc": "AU", "lat": -28.7666, "lon": 114.6}, {"name": "Ghardaia", "country": "Algeria", "cc": "DZ", "lat": 32.49, "lon": 3.67}, {"name": "Ghaziabad", "country": "India", "cc": "IN", "lat": 28.6623, "lon": 77.4064}, {"name": "Gibraltar", "country": "Gibraltar", "cc": "GI", "lat": 36.1324, "lon": -5.3781}, {"name": "Gifu", "country": "Japan", "cc": "JP", "lat": 35.4231, "lon": 136.7628}, {"name": "Glasgow", "country": "United Kingdom", "cc": "GB", "lat": 55.8764, "lon": -4.2527}, {"name": "Goiânia", "country": "Brazil", "cc": "BR", "lat": -16.7181, "lon": -49.302}, {"name": "Gold Coast", "country": "Australia", "cc": "AU", "lat": -28.0815, "lon": 153.4482}, {"name": "Golmud", "country": "China", "cc": "CN", "lat": 36.4166, "lon": 94.8833}, {"name": "Goma", "country": "Congo (Kinshasa)", "cc": "CD", "lat": -1.6788, "lon": 29.2218}, {"name": "Gondar", "country": "Ethiopia", "cc": "ET", "lat": 12.61, "lon": 37.46}, {"name": "Goroka", "country": "Papua New Guinea", "cc": "PG", "lat": -6.0833, "lon": 145.3855}, {"name": "Gorontalo", "country": "Indonesia", "cc": "ID", "lat": 0.55, "lon": 123.07}, {"name": "Grand Turk", "country": "Turks and Caicos Islands", "cc": "TC", "lat": 21.4664, "lon": -71.136}, {"name": "Great Falls", "country": "United States of America", "cc": "US", "lat": 47.5003, "lon": -111.3}, {"name": "Great Wall Station", "country": "Antarctica", "cc": "AQ", "lat": -62.2163, "lon": -58.9667}, {"name": "Griffith", "country": "Australia", "cc": "AU", "lat": -34.29, "lon": 146.04}, {"name": "Grootfontein", "country": "Namibia", "cc": "NA", "lat": -19.5666, "lon": 18.1166}, {"name": "Groznyy", "country": "Russia", "cc": "RU", "lat": 43.3187, "lon": 45.6987}, {"name": "Guadalajara", "country": "Mexico", "cc": "MX", "lat": 20.672, "lon": -103.332}, {"name": "Guangzhou", "country": "China", "cc": "CN", "lat": 23.1469, "lon": 113.3231}, {"name": "Guatemala", "country": "Guatemala", "cc": "GT", "lat": 14.6231, "lon": -90.5289}, {"name": "Guayaquil", "country": "Ecuador", "cc": "EC", "lat": -2.2181, "lon": -79.922}, {"name": "Guaymas", "country": "Mexico", "cc": "MX", "lat": 27.93, "lon": -110.89}, {"name": "Guilin", "country": "China", "cc": "CN", "lat": 25.2819, "lon": 110.2781}, {"name": "Guiyang", "country": "China", "cc": "CN", "lat": 26.582, "lon": 106.7181}, {"name": "Gujranwala", "country": "Pakistan", "cc": "PK", "lat": 32.1624, "lon": 74.1831}, {"name": "Gulbarga", "country": "India", "cc": "IN", "lat": 17.35, "lon": 76.82}, {"name": "Gulu", "country": "Uganda", "cc": "UG", "lat": 2.78, "lon": 32.28}, {"name": "Guwahati", "country": "India", "cc": "IN", "lat": 26.162, "lon": 91.768}, {"name": "Gwalior", "country": "India", "cc": "IN", "lat": 26.2319, "lon": 78.1781}, {"name": "Gwangju", "country": "South Korea", "cc": "KR", "lat": 35.1729, "lon": 126.9085}, {"name": "Hailar", "country": "China", "cc": "CN", "lat": 49.2, "lon": 119.7}, {"name": "Haiphong", "country": "Vietnam", "cc": "VN", "lat": 20.832, "lon": 106.6781}, {"name": "Hakodate", "country": "Japan", "cc": "JP", "lat": 41.795, "lon": 140.74}, {"name": "Halifax", "country": "Canada", "cc": "CA", "lat": 44.65, "lon": -63.6}, {"name": "Halley Station", "country": "Antarctica", "cc": "AQ", "lat": -76.0923, "lon": -26.4742}, {"name": "Hamadan", "country": "Iran", "cc": "IR", "lat": 34.796, "lon": 48.515}, {"name": "Hamburg", "country": "Germany", "cc": "DE", "lat": 53.552, "lon": 9.9981}, {"name": "Hami", "country": "China", "cc": "CN", "lat": 42.827, "lon": 93.515}, {"name": "Hamilton", "country": "New Zealand", "cc": "NZ", "lat": -37.7783, "lon": 175.2896}, {"name": "Hamilton", "country": "Bermuda", "cc": "BM", "lat": 32.2942, "lon": -64.7839}, {"name": "Hammerfest", "country": "Norway", "cc": "NO", "lat": 70.6613, "lon": 23.688}, {"name": "Handan", "country": "China", "cc": "CN", "lat": 36.5819, "lon": 114.478}, {"name": "Hangzhou", "country": "China", "cc": "CN", "lat": 30.2519, "lon": 120.1681}, {"name": "Hanoi", "country": "Vietnam", "cc": "VN", "lat": 21.0353, "lon": 105.8481}, {"name": "Harare", "country": "Zimbabwe", "cc": "ZW", "lat": -17.8158, "lon": 31.0428}, {"name": "Harbin", "country": "China", "cc": "CN", "lat": 45.7519, "lon": 126.648}, {"name": "Hargeysa", "country": "Somaliland", "cc": "-99", "lat": 9.56, "lon": 44.0653}, {"name": "Havana", "country": "Cuba", "cc": "CU", "lat": 23.1339, "lon": -82.3661}, {"name": "Hefei", "country": "China", "cc": "CN", "lat": 31.852, "lon": 117.2781}, {"name": "Helena", "country": "United States of America", "cc": "US", "lat": 46.5927, "lon": -112.0353}, {"name": "Helsinki", "country": "Finland", "cc": "FI", "lat": 60.1775, "lon": 24.9322}, {"name": "Hengyang", "country": "China", "cc": "CN", "lat": 26.882, "lon": 112.5881}, {"name": "Herat", "country": "Afghanistan", "cc": "AF", "lat": 34.33, "lon": 62.17}, {"name": "Hermosillo", "country": "Mexico", "cc": "MX", "lat": 29.0989, "lon": -110.9541}, {"name": "Hilo", "country": "United States of America", "cc": "US", "lat": 19.7, "lon": -155.09}, {"name": "Hiroshima", "country": "Japan", "cc": "JP", "lat": 34.3898, "lon": 132.441}, {"name": "Ho Chi Minh City", "country": "Vietnam", "cc": "VN", "lat": 10.782, "lon": 106.6931}, {"name": "Hobart", "country": "Australia", "cc": "AU", "lat": -42.85, "lon": 147.295}, {"name": "Hohhot", "country": "China", "cc": "CN", "lat": 40.8219, "lon": 111.658}, {"name": "Hong Kong", "country": "Hong Kong S.A.R.", "cc": "HK", "lat": 22.3069, "lon": 114.1831}, {"name": "Honiara", "country": "Solomon Islands", "cc": "SB", "lat": -9.438, "lon": 159.9498}, {"name": "Honolulu", "country": "United States of America", "cc": "US", "lat": 21.3088, "lon": -157.8599}, {"name": "Hotan", "country": "China", "cc": "CN", "lat": 37.0997, "lon": 79.9269}, {"name": "Houma", "country": "China", "cc": "CN", "lat": 35.62, "lon": 111.21}, {"name": "Houston", "country": "United States of America", "cc": "US", "lat": 29.8219, "lon": -95.3419}, {"name": "Huainan", "country": "China", "cc": "CN", "lat": 32.6319, "lon": 116.978}, {"name": "Huaiyin", "country": "China", "cc": "CN", "lat": 33.5819, "lon": 119.028}, {"name": "Huambo", "country": "Angola", "cc": "AO", "lat": -12.748, "lon": 15.7581}, {"name": "Huancayo", "country": "Peru", "cc": "PE", "lat": -12.08, "lon": -75.2}, {"name": "Hubli", "country": "India", "cc": "IN", "lat": 15.3619, "lon": 75.1231}, {"name": "Hyderabad", "country": "Pakistan", "cc": "PK", "lat": 25.3819, "lon": 68.373}, {"name": "Hyderabad", "country": "India", "cc": "IN", "lat": 17.4019, "lon": 78.478}, {"name": "Iași", "country": "Romania", "cc": "RO", "lat": 47.1683, "lon": 27.5749}, {"name": "Ibadan", "country": "Nigeria", "cc": "NG", "lat": 7.382, "lon": 3.928}, {"name": "Ica", "country": "Peru", "cc": "PE", "lat": -14.068, "lon": -75.7255}, {"name": "Igloolik", "country": "Canada", "cc": "CA", "lat": 69.2565, "lon": -81.7936}, {"name": "Iloilo", "country": "Philippines", "cc": "PH", "lat": 10.705, "lon": 122.545}, {"name": "Incheon", "country": "South Korea", "cc": "KR", "lat": 37.4781, "lon": 126.6403}, {"name": "Indianapolis", "country": "United States of America", "cc": "US", "lat": 39.7519, "lon": -86.172}, {"name": "Indore", "country": "India", "cc": "IN", "lat": 22.717, "lon": 75.8631}, {"name": "International Falls", "country": "United States of America", "cc": "US", "lat": 48.6011, "lon": -93.4108}, {"name": "Iqaluit", "country": "Canada", "cc": "CA", "lat": 63.7505, "lon": -68.5002}, {"name": "Iquique", "country": "Chile", "cc": "CL", "lat": -20.25, "lon": -70.13}, {"name": "Iquitos", "country": "Peru", "cc": "PE", "lat": -3.75, "lon": -73.25}, {"name": "Irkutsk", "country": "Russia", "cc": "RU", "lat": 52.32, "lon": 104.245}, {"name": "Isfahan", "country": "Iran", "cc": "IR", "lat": 32.702, "lon": 51.6981}, {"name": "Islamabad", "country": "Pakistan", "cc": "PK", "lat": 33.7019, "lon": 73.1647}, {"name": "Istanbul", "country": "Turkey", "cc": "TR", "lat": 41.1069, "lon": 29.0081}, {"name": "Jabalpur", "country": "India", "cc": "IN", "lat": 23.177, "lon": 79.9531}, {"name": "Jackson", "country": "United States of America", "cc": "US", "lat": 32.2988, "lon": -90.185}, {"name": "Jacksonville", "country": "United States of America", "cc": "US", "lat": 30.332, "lon": -81.6719}, {"name": "Jaipur", "country": "India", "cc": "IN", "lat": 26.9231, "lon": 75.808}, {"name": "Jakarta", "country": "Indonesia", "cc": "ID", "lat": -6.1725, "lon": 106.8275}, {"name": "Jammu", "country": "India", "cc": "IN", "lat": 32.7137, "lon": 74.8448}, {"name": "Jamshedpur", "country": "India", "cc": "IN", "lat": 22.7895, "lon": 86.1956}, {"name": "Jayapura", "country": "Indonesia", "cc": "ID", "lat": -2.533, "lon": 140.7}, {"name": "Jeddah", "country": "Saudi Arabia", "cc": "SA", "lat": 21.5188, "lon": 39.2173}, {"name": "Jerusalem", "country": "Israel", "cc": "IL", "lat": 31.7784, "lon": 35.2066}, {"name": "Ji-Paraná", "country": "Brazil", "cc": "BR", "lat": -10.8333, "lon": -61.967}, {"name": "Jiamusi", "country": "China", "cc": "CN", "lat": 46.832, "lon": 130.3481}, {"name": "Jiayuguan", "country": "China", "cc": "CN", "lat": 39.82, "lon": 98.3}, {"name": "Jilin", "country": "China", "cc": "CN", "lat": 43.8519, "lon": 126.5481}, {"name": "Jinan", "country": "China", "cc": "CN", "lat": 36.6769, "lon": 116.9931}, {"name": "Jinja", "country": "Uganda", "cc": "UG", "lat": 0.4404, "lon": 33.1999}, {"name": "Jinxi", "country": "China", "cc": "CN", "lat": 40.7523, "lon": 120.828}, {"name": "Jixi", "country": "China", "cc": "CN", "lat": 45.3019, "lon": 130.9681}, {"name": "Jodhpur", "country": "India", "cc": "IN", "lat": 26.2937, "lon": 73.0148}, {"name": "Johannesburg", "country": "South Africa", "cc": "ZA", "lat": -26.1681, "lon": 28.0281}, {"name": "Juba", "country": "South Sudan", "cc": "SS", "lat": 4.83, "lon": 31.58}, {"name": "Jullundur", "country": "India", "cc": "IN", "lat": 31.3369, "lon": 75.5671}, {"name": "Juneau", "country": "United States of America", "cc": "US", "lat": 58.3141, "lon": -134.42}, {"name": "Kabul", "country": "Afghanistan", "cc": "AF", "lat": 34.5186, "lon": 69.1813}, {"name": "Kabwe", "country": "Zambia", "cc": "ZM", "lat": -14.44, "lon": 28.45}, {"name": "Kaduna", "country": "Nigeria", "cc": "NG", "lat": 10.522, "lon": 7.4381}, {"name": "Kalemie", "country": "Congo (Kinshasa)", "cc": "CD", "lat": -5.9333, "lon": 29.2}, {"name": "Kalgoorlie", "country": "Australia", "cc": "AU", "lat": -30.7354, "lon": 121.46}, {"name": "Kaliningrad", "country": "Russia", "cc": "RU", "lat": 54.7, "lon": 20.4973}, {"name": "Kampala", "country": "Uganda", "cc": "UG", "lat": 0.3186, "lon": 32.5814}, {"name": "Kananga", "country": "Congo (Kinshasa)", "cc": "CD", "lat": -5.8881, "lon": 22.3981}, {"name": "Kandahar", "country": "Afghanistan", "cc": "AF", "lat": 31.61, "lon": 65.6949}, {"name": "Kandy", "country": "Sri Lanka", "cc": "LK", "lat": 7.28, "lon": 80.67}, {"name": "Kankan", "country": "Guinea", "cc": "GN", "lat": 10.39, "lon": -9.31}, {"name": "Kano", "country": "Nigeria", "cc": "NG", "lat": 12.0019, "lon": 8.5181}, {"name": "Kanpur", "country": "India", "cc": "IN", "lat": 26.4619, "lon": 80.3181}, {"name": "Kansas City", "country": "United States of America", "cc": "US", "lat": 39.109, "lon": -94.606}, {"name": "Kaohsiung", "country": "Taiwan", "cc": "TW", "lat": 22.6333, "lon": 120.2666}, {"name": "Kaolack", "country": "Senegal", "cc": "SN", "lat": 14.15, "lon": -16.1}, {"name": "Karachi", "country": "Pakistan", "cc": "PK", "lat": 24.8719, "lon": 66.9881}, {"name": "Karratha", "country": "Australia", "cc": "AU", "lat": -20.7304, "lon": 116.87}, {"name": "Kashgar", "country": "China", "cc": "CN", "lat": 39.4763, "lon": 75.9699}, {"name": "Kasongo", "country": "Congo (Kinshasa)", "cc": "CD", "lat": -4.45, "lon": 26.66}, {"name": "Kassala", "country": "Sudan", "cc": "SD", "lat": 15.46, "lon": 36.39}, {"name": "Katherine", "country": "Australia", "cc": "AU", "lat": -14.4666, "lon": 132.2666}, {"name": "Kathmandu", "country": "Nepal", "cc": "NP", "lat": 27.7186, "lon": 85.3147}, {"name": "Kayes", "country": "Congo (Brazzaville)", "cc": "CG", "lat": -4.18, "lon": 13.28}, {"name": "Kayes", "country": "Mali", "cc": "ML", "lat": 14.45, "lon": -11.44}, {"name": "Kazan", "country": "Russia", "cc": "RU", "lat": 55.7519, "lon": 49.1244}, {"name": "Kaédi", "country": "Senegal", "cc": "SN", "lat": 16.15, "lon": -13.5}, {"name": "Keetmanshoop", "country": "Namibia", "cc": "NA", "lat": -26.5739, "lon": 18.13}, {"name": "Kemerovo", "country": "Russia", "cc": "RU", "lat": 55.34, "lon": 86.09}, {"name": "Khabarovsk", "country": "Russia", "cc": "RU", "lat": 48.455, "lon": 135.12}, {"name": "Kharkiv", "country": "Ukraine", "cc": "UA", "lat": 50.0019, "lon": 36.2481}, {"name": "Khartoum", "country": "Sudan", "cc": "SD", "lat": 15.59, "lon": 32.5322}, {"name": "Khatanga", "country": "Russia", "cc": "RU", "lat": 72.0411, "lon": 102.465}, {"name": "Khulna", "country": "Bangladesh", "cc": "BD", "lat": 22.8419, "lon": 89.5581}, {"name": "Kiev", "country": "Ukraine", "cc": "UA", "lat": 50.4353, "lon": 30.5147}, {"name": "Kigali", "country": "Rwanda", "cc": "RW", "lat": -1.9516, "lon": 30.0586}, {"name": "Kikwit", "country": "Congo (Kinshasa)", "cc": "CD", "lat": -5.03, "lon": 18.85}, {"name": "King Sejong Station", "country": "Antarctica", "cc": "AQ", "lat": -62.2249, "lon": -58.7716}, {"name": "Kingston", "country": "Jamaica", "cc": "JM", "lat": 17.9771, "lon": -76.7674}, {"name": "Kingstown", "country": "Saint Vincent and the Grenadines", "cc": "VC", "lat": 13.1483, "lon": -61.2121}, {"name": "Kinshasa", "country": "Congo (Kinshasa)", "cc": "CD", "lat": -4.3278, "lon": 15.313}, {"name": "Kirkuk", "country": "Iraq", "cc": "IQ", "lat": 35.4722, "lon": 44.3923}, {"name": "Kirov", "country": "Russia", "cc": "RU", "lat": 58.5901, "lon": 49.67}, {"name": "Kisangani", "country": "Congo (Kinshasa)", "cc": "CD", "lat": 0.52, "lon": 25.22}, {"name": "Kitwe", "country": "Zambia", "cc": "ZM", "lat": -12.81, "lon": 28.22}, {"name": "Knoxville", "country": "United States of America", "cc": "US", "lat": 35.97, "lon": -83.92}, {"name": "Kochi", "country": "India", "cc": "IN", "lat": 10.017, "lon": 76.222}, {"name": "Kodiak", "country": "United States of America", "cc": "US", "lat": 57.79, "lon": -152.407}, {"name": "Kolhapur", "country": "India", "cc": "IN", "lat": 16.7, "lon": 74.22}, {"name": "Kolkata", "country": "India", "cc": "IN", "lat": 22.4969, "lon": 88.3227}, {"name": "Kolwezi", "country": "Congo (Kinshasa)", "cc": "CD", "lat": -10.7167, "lon": 25.4724}, {"name": "Konya", "country": "Turkey", "cc": "TR", "lat": 37.877, "lon": 32.4731}, {"name": "Kota", "country": "India", "cc": "IN", "lat": 25.1819, "lon": 75.8331}, {"name": "Kozhikode", "country": "India", "cc": "IN", "lat": 11.2524, "lon": 75.768}, {"name": "Kraków", "country": "Poland", "cc": "PL", "lat": 50.0619, "lon": 19.9581}, {"name": "Krasnodar", "country": "Russia", "cc": "RU", "lat": 45.02, "lon": 39.0}, {"name": "Krasnoyarsk", "country": "Russia", "cc": "RU", "lat": 56.0159, "lon": 92.8641}, {"name": "Kristiansand", "country": "Norway", "cc": "NO", "lat": 58.1666, "lon": 8.0}, {"name": "Kuala Lumpur", "country": "Malaysia", "cc": "MY", "lat": 3.1686, "lon": 101.698}, {"name": "Kuching", "country": "Malaysia", "cc": "MY", "lat": 1.53, "lon": 110.33}, {"name": "Kugluktuk", "country": "Canada", "cc": "CA", "lat": 67.7987, "lon": -115.1254}, {"name": "Kunming", "country": "China", "cc": "CN", "lat": 25.0719, "lon": 102.678}, {"name": "Kupang", "country": "Indonesia", "cc": "ID", "lat": -10.1787, "lon": 123.583}, {"name": "Kushiro", "country": "Japan", "cc": "JP", "lat": 42.975, "lon": 144.3747}, {"name": "Kuujjuaq", "country": "Canada", "cc": "CA", "lat": 58.1, "lon": -68.4}, {"name": "Kuujjuarapik", "country": "Canada", "cc": "CA", "lat": 55.2815, "lon": -77.7658}, {"name": "Kuwait", "country": "Kuwait", "cc": "KW", "lat": 29.3717, "lon": 47.9764}, {"name": "Kyoto", "country": "Japan", "cc": "JP", "lat": 35.0319, "lon": 135.7481}, {"name": "Kyzyl", "country": "Russia", "cc": "RU", "lat": 51.7067, "lon": 94.3831}, {"name": "København", "country": "Denmark", "cc": "DK", "lat": 55.6805, "lon": 12.5615}, {"name": "Kōchi", "country": "Japan", "cc": "JP", "lat": 33.5624, "lon": 133.5375}, {"name": "L'Aquila", "country": "Italy", "cc": "IT", "lat": 42.3504, "lon": 13.39}, {"name": "La Paz", "country": "Mexico", "cc": "MX", "lat": 24.14, "lon": -110.32}, {"name": "La Paz", "country": "Bolivia", "cc": "BO", "lat": -16.496, "lon": -68.1519}, {"name": "La Serena", "country": "Chile", "cc": "CL", "lat": -29.9, "lon": -71.25}, {"name": "Laayoune", "country": "Morocco", "cc": "MA", "lat": 27.15, "lon": -13.2}, {"name": "Labrador City", "country": "Canada", "cc": "CA", "lat": 52.9414, "lon": -66.9159}, {"name": "Lae", "country": "Papua New Guinea", "cc": "PG", "lat": -6.733, "lon": 146.99}, {"name": "Lagos", "country": "Nigeria", "cc": "NG", "lat": 6.4452, "lon": 3.3896}, {"name": "Lahore", "country": "Pakistan", "cc": "PK", "lat": 31.5619, "lon": 74.3481}, {"name": "Lanzhou", "country": "China", "cc": "CN", "lat": 36.058, "lon": 103.7901}, {"name": "Laoag", "country": "Philippines", "cc": "PH", "lat": 18.1988, "lon": 120.5936}, {"name": "Laredo", "country": "United States of America", "cc": "US", "lat": 27.5061, "lon": -99.5072}, {"name": "Larkana", "country": "Pakistan", "cc": "PK", "lat": 27.5618, "lon": 68.2068}, {"name": "Las Palmas", "country": "Spain", "cc": "ES", "lat": 28.1, "lon": -15.43}, {"name": "Las Vegas", "country": "United States of America", "cc": "US", "lat": 36.2119, "lon": -115.222}, {"name": "Le Havre", "country": "France", "cc": "FR", "lat": 49.505, "lon": 0.105}, {"name": "Lensk", "country": "Russia", "cc": "RU", "lat": 60.7253, "lon": 114.947}, {"name": "Leticia", "country": "Colombia", "cc": "CO", "lat": -4.2012, "lon": -69.9553}, {"name": "León", "country": "Mexico", "cc": "MX", "lat": 21.1519, "lon": -101.702}, {"name": "Lhasa", "country": "China", "cc": "CN", "lat": 29.645, "lon": 91.1}, {"name": "Libreville", "country": "Gabon", "cc": "GA", "lat": 0.3854, "lon": 9.458}, {"name": "Lille", "country": "France", "cc": "FR", "lat": 50.6519, "lon": 3.0781}, {"name": "Lilongwe", "country": "Malawi", "cc": "MW", "lat": -13.9833, "lon": 33.7833}, {"name": "Lima", "country": "Peru", "cc": "PE", "lat": -12.0461, "lon": -77.052}, {"name": "Limoges", "country": "France", "cc": "FR", "lat": 45.83, "lon": 1.25}, {"name": "Linyi", "country": "China", "cc": "CN", "lat": 35.0819, "lon": 118.328}, {"name": "Lisbon", "country": "Portugal", "cc": "PT", "lat": 38.7247, "lon": -9.1468}, {"name": "Livingstone", "country": "Zambia", "cc": "ZM", "lat": -17.86, "lon": 25.86}, {"name": "Ljubljana", "country": "Slovenia", "cc": "SI", "lat": 46.0553, "lon": 14.515}, {"name": "Lobamba", "country": "Swaziland", "cc": "SZ", "lat": -26.4667, "lon": 31.2}, {"name": "Lomé", "country": "Togo", "cc": "TG", "lat": 6.1339, "lon": 1.2208}, {"name": "London", "country": "United Kingdom", "cc": "GB", "lat": 51.5019, "lon": -0.1187}, {"name": "Longyearbyen", "country": "Svalbard and Jan Mayen Islands", "cc": "SJ", "lat": 78.2167, "lon": 15.55}, {"name": "Los Angeles", "country": "Chile", "cc": "CL", "lat": -37.46, "lon": -72.36}, {"name": "Los Angeles", "country": "United States of America", "cc": "US", "lat": 33.9919, "lon": -118.1819}, {"name": "Luanda", "country": "Angola", "cc": "AO", "lat": -8.8363, "lon": 13.2325}, {"name": "Lubango", "country": "Angola", "cc": "AO", "lat": -14.91, "lon": 13.49}, {"name": "Lubumbashi", "country": "Congo (Kinshasa)", "cc": "CD", "lat": -11.6781, "lon": 27.4781}, {"name": "Lucknow", "country": "India", "cc": "IN", "lat": 26.857, "lon": 80.9131}, {"name": "Ludhiana", "country": "India", "cc": "IN", "lat": 30.9297, "lon": 75.8703}, {"name": "Luleå", "country": "Sweden", "cc": "SE", "lat": 65.5966, "lon": 22.1584}, {"name": "Lupanshui", "country": "China", "cc": "CN", "lat": 26.5964, "lon": 104.8314}, {"name": "Lusaka", "country": "Zambia", "cc": "ZM", "lat": -15.4147, "lon": 28.2814}, {"name": "Luxembourg", "country": "Luxembourg", "cc": "LU", "lat": 49.6117, "lon": 6.13}, {"name": "Luxor", "country": "Egypt", "cc": "EG", "lat": 25.7, "lon": 32.65}, {"name": "Lvov", "country": "Ukraine", "cc": "UA", "lat": 49.835, "lon": 24.03}, {"name": "Lyon", "country": "France", "cc": "FR", "lat": 45.772, "lon": 4.8281}, {"name": "Lüderitz", "country": "Namibia", "cc": "NA", "lat": -26.648, "lon": 15.1594}, {"name": "Macapá", "country": "Brazil", "cc": "BR", "lat": 0.033, "lon": -51.05}, {"name": "Macau", "country": "Macau S.A.R", "cc": "MO", "lat": 22.203, "lon": 113.545}, {"name": "Maceió", "country": "Brazil", "cc": "BR", "lat": -9.618, "lon": -35.7319}, {"name": "Madrid", "country": "Spain", "cc": "ES", "lat": 40.402, "lon": -3.6853}, {"name": "Madurai", "country": "India", "cc": "IN", "lat": 9.922, "lon": 78.1181}, {"name": "Magadan", "country": "Russia", "cc": "RU", "lat": 59.575, "lon": 150.81}, {"name": "Magnitogorsk", "country": "Russia", "cc": "RU", "lat": 53.4227, "lon": 58.98}, {"name": "Mahajanga", "country": "Madagascar", "cc": "MG", "lat": -15.67, "lon": 46.345}, {"name": "Mahalapye", "country": "Botswana", "cc": "BW", "lat": -23.1, "lon": 26.82}, {"name": "Maiduguri", "country": "Nigeria", "cc": "NG", "lat": 11.8519, "lon": 13.1581}, {"name": "Maitri Station", "country": "Antarctica", "cc": "AQ", "lat": -70.7822, "lon": 11.7305}, {"name": "Majuro", "country": "Marshall Islands", "cc": "MH", "lat": 7.103, "lon": 171.38}, {"name": "Makkah", "country": "Saudi Arabia", "cc": "SA", "lat": 21.432, "lon": 39.8181}, {"name": "Makurdi", "country": "Nigeria", "cc": "NG", "lat": 7.73, "lon": 8.53}, {"name": "Malabo", "country": "Equatorial Guinea", "cc": "GQ", "lat": 3.75, "lon": 8.7833}, {"name": "Malakal", "country": "South Sudan", "cc": "SS", "lat": 9.5369, "lon": 31.656}, {"name": "Malang", "country": "Indonesia", "cc": "ID", "lat": -7.978, "lon": 112.6081}, {"name": "Malanje", "country": "Angola", "cc": "AO", "lat": -9.54, "lon": 16.34}, {"name": "Malmö", "country": "Sweden", "cc": "SE", "lat": 55.5833, "lon": 13.0333}, {"name": "Malé", "country": "Maldives", "cc": "MV", "lat": 4.1667, "lon": 73.4999}, {"name": "Managua", "country": "Nicaragua", "cc": "NI", "lat": 12.155, "lon": -86.2704}, {"name": "Manama", "country": "Bahrain", "cc": "BH", "lat": 26.2361, "lon": 50.5831}, {"name": "Manaus", "country": "Brazil", "cc": "BR", "lat": -3.0981, "lon": -60.002}, {"name": "Manchester", "country": "United Kingdom", "cc": "GB", "lat": 53.5024, "lon": -2.2499}, {"name": "Mandalay", "country": "Myanmar", "cc": "MM", "lat": 21.9719, "lon": 96.0831}, {"name": "Mandurah", "country": "Australia", "cc": "AU", "lat": -32.5235, "lon": 115.7471}, {"name": "Mangalore", "country": "India", "cc": "IN", "lat": 12.9, "lon": 74.85}, {"name": "Manila", "country": "Philippines", "cc": "PH", "lat": 14.6061, "lon": 120.9803}, {"name": "Manizales", "country": "Colombia", "cc": "CO", "lat": 5.06, "lon": -75.52}, {"name": "Manukau", "country": "New Zealand", "cc": "NZ", "lat": -37.0, "lon": 174.885}, {"name": "Maputo", "country": "Mozambique", "cc": "MZ", "lat": -25.9533, "lon": 32.5872}, {"name": "Mar del Plata", "country": "Argentina", "cc": "AR", "lat": -38.0, "lon": -57.58}, {"name": "Marabá", "country": "Brazil", "cc": "BR", "lat": -5.35, "lon": -49.116}, {"name": "Maracaibo", "country": "Venezuela", "cc": "VE", "lat": 10.7319, "lon": -71.6619}, {"name": "Maradi", "country": "Niger", "cc": "NE", "lat": 13.4916, "lon": 7.0964}, {"name": "Marambio Base", "country": "Antarctica", "cc": "AQ", "lat": -64.2329, "lon": -56.65}, {"name": "Mariehamn", "country": "Aland", "cc": "AX", "lat": 60.097, "lon": 19.949}, {"name": "Maroua", "country": "Cameroon", "cc": "CM", "lat": 10.5956, "lon": 14.3247}, {"name": "Marrakesh", "country": "Morocco", "cc": "MA", "lat": 31.6319, "lon": -8.0019}, {"name": "Marseille", "country": "France", "cc": "FR", "lat": 43.2919, "lon": 5.3731}, {"name": "Mary", "country": "Turkmenistan", "cc": "TM", "lat": 37.6, "lon": 61.8333}, {"name": "Masaka", "country": "Uganda", "cc": "UG", "lat": -0.3296, "lon": 31.73}, {"name": "Maseru", "country": "Lesotho", "cc": "LS", "lat": -29.3167, "lon": 27.4833}, {"name": "Mashhad", "country": "Iran", "cc": "IR", "lat": 36.272, "lon": 59.5681}, {"name": "Matadi", "country": "Congo (Kinshasa)", "cc": "CD", "lat": -5.8166, "lon": 13.45}, {"name": "Matamoros", "country": "Mexico", "cc": "MX", "lat": 25.88, "lon": -97.5}, {"name": "Matsuyama", "country": "Japan", "cc": "JP", "lat": 33.8455, "lon": 132.7658}, {"name": "Mawson Station", "country": "Antarctica", "cc": "AQ", "lat": -67.6145, "lon": 62.875}, {"name": "Mazar-e Sharif", "country": "Afghanistan", "cc": "AF", "lat": 36.7, "lon": 67.1}, {"name": "Mazatlán", "country": "Mexico", "cc": "MX", "lat": 23.2211, "lon": -106.42}, {"name": "Mbabane", "country": "Swaziland", "cc": "SZ", "lat": -26.3167, "lon": 31.1333}, {"name": "Mbale", "country": "Uganda", "cc": "UG", "lat": 1.0904, "lon": 34.17}, {"name": "Mbandaka", "country": "Congo (Kinshasa)", "cc": "CD", "lat": 0.04, "lon": 18.26}, {"name": "Mbarara", "country": "Uganda", "cc": "UG", "lat": -0.5996, "lon": 30.65}, {"name": "Mbeya", "country": "Tanzania", "cc": "TZ", "lat": -8.89, "lon": 33.43}, {"name": "Mbuji-Mayi", "country": "Congo (Kinshasa)", "cc": "CD", "lat": -6.1481, "lon": 23.5981}, {"name": "McMurdo Station", "country": "Antarctica", "cc": "AQ", "lat": -77.7323, "lon": 166.8694}, {"name": "Medan", "country": "Indonesia", "cc": "ID", "lat": 3.5819, "lon": 98.6481}, {"name": "Medellín", "country": "Colombia", "cc": "CO", "lat": 6.2769, "lon": -75.577}, {"name": "Medina", "country": "Saudi Arabia", "cc": "SA", "lat": 24.5019, "lon": 39.5781}, {"name": "Meerut", "country": "India", "cc": "IN", "lat": 29.0024, "lon": 77.6981}, {"name": "Mekele", "country": "Ethiopia", "cc": "ET", "lat": 13.5, "lon": 39.47}, {"name": "Melbourne", "country": "Australia", "cc": "AU", "lat": -37.8181, "lon": 144.9731}, {"name": "Melekeok", "country": "Palau", "cc": "PW", "lat": 7.4874, "lon": 134.6265}, {"name": "Memphis", "country": "United States of America", "cc": "US", "lat": 35.1219, "lon": -90.0019}, {"name": "Mendoza", "country": "Argentina", "cc": "AR", "lat": -32.8814, "lon": -68.8186}, {"name": "Menongue", "country": "Angola", "cc": "AO", "lat": -14.6666, "lon": 17.7}, {"name": "Merida", "country": "Venezuela", "cc": "VE", "lat": 8.4, "lon": -71.13}, {"name": "Meru", "country": "Kenya", "cc": "KE", "lat": 0.06, "lon": 37.64}, {"name": "Mexicali", "country": "Mexico", "cc": "MX", "lat": 32.6519, "lon": -115.482}, {"name": "Mexico City", "country": "Mexico", "cc": "MX", "lat": 19.4444, "lon": -99.1329}, {"name": "Miami", "country": "United States of America", "cc": "US", "lat": 25.7896, "lon": -80.2261}, {"name": "Mianyang", "country": "China", "cc": "CN", "lat": 31.4719, "lon": 104.768}, {"name": "Middelburg", "country": "South Africa", "cc": "ZA", "lat": -31.5, "lon": 25.01}, {"name": "Milan", "country": "Italy", "cc": "IT", "lat": 45.4719, "lon": 9.2031}, {"name": "Milwaukee", "country": "United States of America", "cc": "US", "lat": 43.0546, "lon": -87.9219}, {"name": "Minneapolis", "country": "United States of America", "cc": "US", "lat": 44.9819, "lon": -93.2537}, {"name": "Minot", "country": "United States of America", "cc": "US", "lat": 48.2325, "lon": -101.2958}, {"name": "Minsk", "country": "Belarus", "cc": "BY", "lat": 53.9019, "lon": 27.5647}, {"name": "Mirny Station", "country": "Antarctica", "cc": "AQ", "lat": -66.5755, "lon": 93.0063}, {"name": "Mirnyy", "country": "Russia", "cc": "RU", "lat": 62.54, "lon": 113.9614}, {"name": "Misratah", "country": "Libya", "cc": "LY", "lat": 32.38, "lon": 15.1}, {"name": "Missoula", "country": "United States of America", "cc": "US", "lat": 46.8722, "lon": -113.9931}, {"name": "Mitú", "country": "Colombia", "cc": "CO", "lat": 1.1983, "lon": -70.1736}, {"name": "Miyazaki", "country": "Japan", "cc": "JP", "lat": 31.9182, "lon": 131.4184}, {"name": "Mogadishu", "country": "Somalia", "cc": "SO", "lat": 2.0686, "lon": 45.3647}, {"name": "Mombasa", "country": "Kenya", "cc": "KE", "lat": -4.0381, "lon": 39.688}, {"name": "Monaco", "country": "Monaco", "cc": "MC", "lat": 43.7396, "lon": 7.4069}, {"name": "Monrovia", "country": "Liberia", "cc": "LR", "lat": 6.3146, "lon": -10.7997}, {"name": "Monterrey", "country": "Mexico", "cc": "MX", "lat": 25.6719, "lon": -100.3319}, {"name": "Montes Claros", "country": "Brazil", "cc": "BR", "lat": -16.72, "lon": -43.86}, {"name": "Montevideo", "country": "Uruguay", "cc": "UY", "lat": -34.8561, "lon": -56.173}, {"name": "Montgomery", "country": "United States of America", "cc": "US", "lat": 32.3616, "lon": -86.2792}, {"name": "Montpellier", "country": "France", "cc": "FR", "lat": 43.6104, "lon": 3.87}, {"name": "Montréal", "country": "Canada", "cc": "CA", "lat": 45.5019, "lon": -73.5852}, {"name": "Moradabad", "country": "India", "cc": "IN", "lat": 28.8437, "lon": 78.7548}, {"name": "Morogoro", "country": "Tanzania", "cc": "TZ", "lat": -6.82, "lon": 37.66}, {"name": "Moroni", "country": "Comoros", "cc": "KM", "lat": -11.7042, "lon": 43.2402}, {"name": "Moroto", "country": "Uganda", "cc": "UG", "lat": 2.5403, "lon": 34.64}, {"name": "Moscow", "country": "Russia", "cc": "RU", "lat": 55.7541, "lon": 37.6136}, {"name": "Mosul", "country": "Iraq", "cc": "IQ", "lat": 36.3469, "lon": 43.1431}, {"name": "Moundou", "country": "Chad", "cc": "TD", "lat": 8.55, "lon": 16.09}, {"name": "Mount Isa", "country": "Australia", "cc": "AU", "lat": -20.7239, "lon": 139.49}, {"name": "Mt. Hagen", "country": "Papua New Guinea", "cc": "PG", "lat": -5.8632, "lon": 144.2168}, {"name": "Mufulira", "country": "Zambia", "cc": "ZM", "lat": -12.55, "lon": 28.26}, {"name": "Multan", "country": "Pakistan", "cc": "PK", "lat": 30.2019, "lon": 71.4531}, {"name": "Mumbai", "country": "India", "cc": "IN", "lat": 19.0189, "lon": 72.855}, {"name": "Munich", "country": "Germany", "cc": "DE", "lat": 48.1319, "lon": 11.573}, {"name": "Murmansk", "country": "Russia", "cc": "RU", "lat": 68.97, "lon": 33.1}, {"name": "Muscat", "country": "Oman", "cc": "OM", "lat": 23.6133, "lon": 58.5933}, {"name": "Mwanza", "country": "Tanzania", "cc": "TZ", "lat": -2.52, "lon": 32.93}, {"name": "Mysore", "country": "India", "cc": "IN", "lat": 12.3119, "lon": 76.6581}, {"name": "Mzuzu", "country": "Malawi", "cc": "MW", "lat": -11.46, "lon": 34.02}, {"name": "Mérida", "country": "Mexico", "cc": "MX", "lat": 20.9686, "lon": -89.6186}, {"name": "Nacala", "country": "Mozambique", "cc": "MZ", "lat": -14.5186, "lon": 40.715}, {"name": "Nagano", "country": "Japan", "cc": "JP", "lat": 36.65, "lon": 138.17}, {"name": "Nagasaki", "country": "Japan", "cc": "JP", "lat": 32.765, "lon": 129.885}, {"name": "Nagoya", "country": "Japan", "cc": "JP", "lat": 35.1569, "lon": 136.913}, {"name": "Nagpur", "country": "India", "cc": "IN", "lat": 21.1719, "lon": 79.088}, {"name": "Naha", "country": "Japan", "cc": "JP", "lat": 26.2072, "lon": 127.673}, {"name": "Nain", "country": "Canada", "cc": "CA", "lat": 56.5474, "lon": -61.686}, {"name": "Nairobi", "country": "Kenya", "cc": "KE", "lat": -1.2814, "lon": 36.8147}, {"name": "Nakhon Ratchasima", "country": "Thailand", "cc": "TH", "lat": 15.0, "lon": 102.1}, {"name": "Naltchik", "country": "Russia", "cc": "RU", "lat": 43.4981, "lon": 43.6179}, {"name": "Namibe", "country": "Angola", "cc": "AO", "lat": -15.19, "lon": 12.16}, {"name": "Nampula", "country": "Mozambique", "cc": "MZ", "lat": -15.136, "lon": 39.293}, {"name": "Nanchang", "country": "China", "cc": "CN", "lat": 28.6819, "lon": 115.8781}, {"name": "Nanchong", "country": "China", "cc": "CN", "lat": 30.7824, "lon": 106.1281}, {"name": "Nancy", "country": "France", "cc": "FR", "lat": 48.6837, "lon": 6.2}, {"name": "Nanded", "country": "India", "cc": "IN", "lat": 19.17, "lon": 77.3}, {"name": "Nanjing", "country": "China", "cc": "CN", "lat": 32.052, "lon": 118.778}, {"name": "Nanning", "country": "China", "cc": "CN", "lat": 22.8219, "lon": 108.3181}, {"name": "Nantes", "country": "France", "cc": "FR", "lat": 47.2104, "lon": -1.59}, {"name": "Nanyang", "country": "China", "cc": "CN", "lat": 33.0023, "lon": 112.5281}, {"name": "Napier", "country": "New Zealand", "cc": "NZ", "lat": -39.49, "lon": 176.9265}, {"name": "Naples", "country": "Italy", "cc": "IT", "lat": 40.842, "lon": 14.2431}, {"name": "Narsarsuaq", "country": "Greenland", "cc": "GL", "lat": 61.1666, "lon": -45.4166}, {"name": "Nashville", "country": "United States of America", "cc": "US", "lat": 36.1719, "lon": -86.7819}, {"name": "Nasik", "country": "India", "cc": "IN", "lat": 20.0024, "lon": 73.778}, {"name": "Nassau", "country": "The Bahamas", "cc": "BS", "lat": 25.0834, "lon": -77.35}, {"name": "Natal", "country": "Brazil", "cc": "BR", "lat": -5.7781, "lon": -35.242}, {"name": "Naujaat", "country": "Canada", "cc": "CA", "lat": 66.5295, "lon": -86.2829}, {"name": "Naypyidaw", "country": "Myanmar", "cc": "MM", "lat": 19.7685, "lon": 96.1167}, {"name": "Ndele", "country": "Central African Republic", "cc": "CF", "lat": 8.4091, "lon": 20.653}, {"name": "Ndjamena", "country": "Chad", "cc": "TD", "lat": 12.115, "lon": 15.0472}, {"name": "Neijiang", "country": "China", "cc": "CN", "lat": 29.5823, "lon": 105.0481}, {"name": "Neumayer Station III", "country": "Antarctica", "cc": "AQ", "lat": -70.8904, "lon": -7.8384}, {"name": "Neuquén", "country": "Argentina", "cc": "AR", "lat": -38.95, "lon": -68.06}, {"name": "New Delhi", "country": "India", "cc": "IN", "lat": 28.6, "lon": 77.2}, {"name": "New Orleans", "country": "United States of America", "cc": "US", "lat": 29.9969, "lon": -90.0419}, {"name": "New York", "country": "United States of America", "cc": "US", "lat": 40.7519, "lon": -73.982}, {"name": "Newcastle", "country": "Australia", "cc": "AU", "lat": -32.8453, "lon": 151.815}, {"name": "Niamey", "country": "Niger", "cc": "NE", "lat": 13.5187, "lon": 2.1147}, {"name": "Nicosia", "country": "Cyprus", "cc": "CY", "lat": 35.1667, "lon": 33.3666}, {"name": "Ningbo", "country": "China", "cc": "CN", "lat": 29.8819, "lon": 121.5481}, {"name": "Niyala", "country": "Sudan", "cc": "SD", "lat": 12.06, "lon": 24.89}, {"name": "Nizhneyansk", "country": "Russia", "cc": "RU", "lat": 71.4333, "lon": 136.0666}, {"name": "Nizhny Novgorod", "country": "Russia", "cc": "RU", "lat": 56.335, "lon": 43.9981}, {"name": "Nizhny Tagil", "country": "Russia", "cc": "RU", "lat": 57.92, "lon": 59.975}, {"name": "Nogales", "country": "Mexico", "cc": "MX", "lat": 31.305, "lon": -110.945}, {"name": "Nome", "country": "United States of America", "cc": "US", "lat": 64.5061, "lon": -165.4064}, {"name": "Norfolk", "country": "United States of America", "cc": "US", "lat": 36.85, "lon": -76.28}, {"name": "Norilsk", "country": "Russia", "cc": "RU", "lat": 69.34, "lon": 88.225}, {"name": "North Bay", "country": "Canada", "cc": "CA", "lat": 46.3, "lon": -79.45}, {"name": "Nouadhibou", "country": "Mauritania", "cc": "MR", "lat": 20.9, "lon": -17.056}, {"name": "Nouakchott", "country": "Mauritania", "cc": "MR", "lat": 18.0864, "lon": -15.9753}, {"name": "Nouméa", "country": "New Caledonia", "cc": "NC", "lat": -22.2625, "lon": 166.4443}, {"name": "Novi Sad", "country": "Serbia", "cc": "RS", "lat": 45.2504, "lon": 19.8499}, {"name": "Novokuznetsk", "country": "Russia", "cc": "RU", "lat": 53.75, "lon": 87.115}, {"name": "Novolazarevskaya Station", "country": "Antarctica", "cc": "AQ", "lat": -71.3012, "lon": -11.8502}, {"name": "Novosibirsk", "country": "Russia", "cc": "RU", "lat": 55.0319, "lon": 82.9581}, {"name": "Nuevo Laredo", "country": "Mexico", "cc": "MX", "lat": 27.5, "lon": -99.55}, {"name": "Nukualofa", "country": "Tonga", "cc": "TO", "lat": -21.1385, "lon": -175.2206}, {"name": "Nukus", "country": "Uzbekistan", "cc": "UZ", "lat": 42.47, "lon": 59.615}, {"name": "Nuuk", "country": "Greenland", "cc": "GL", "lat": 64.1983, "lon": -51.7327}, {"name": "Nzérékoré", "country": "Guinea", "cc": "GN", "lat": 7.76, "lon": -8.83}, {"name": "Oaxaca", "country": "Mexico", "cc": "MX", "lat": 17.0827, "lon": -96.6699}, {"name": "Obo", "country": "Central African Republic", "cc": "CF", "lat": 5.4, "lon": 26.5}, {"name": "Odessa", "country": "Ukraine", "cc": "UA", "lat": 46.492, "lon": 30.7081}, {"name": "Ogbomosho", "country": "Nigeria", "cc": "NG", "lat": 8.132, "lon": 4.238}, {"name": "Okha", "country": "Russia", "cc": "RU", "lat": 53.5739, "lon": 142.9479}, {"name": "Okhotsk", "country": "Russia", "cc": "RU", "lat": 59.383, "lon": 143.217}, {"name": "Oklahoma City", "country": "United States of America", "cc": "US", "lat": 35.472, "lon": -97.5206}, {"name": "Olympia", "country": "United States of America", "cc": "US", "lat": 47.038, "lon": -122.8994}, {"name": "Omaha", "country": "United States of America", "cc": "US", "lat": 41.24, "lon": -96.01}, {"name": "Omdurman", "country": "Sudan", "cc": "SD", "lat": 15.6167, "lon": 32.48}, {"name": "Omsk", "country": "Russia", "cc": "RU", "lat": 54.9919, "lon": 73.398}, {"name": "Oran", "country": "Algeria", "cc": "DZ", "lat": 35.7119, "lon": -0.6219}, {"name": "Orange", "country": "Australia", "cc": "AU", "lat": -33.28, "lon": 149.1}, {"name": "Oranjestad", "country": "Aruba", "cc": "AW", "lat": 12.5304, "lon": -70.029}, {"name": "Orcadas Station", "country": "Antarctica", "cc": "AQ", "lat": -60.7329, "lon": -44.7333}, {"name": "Orenburg", "country": "Russia", "cc": "RU", "lat": 51.78, "lon": 55.11}, {"name": "Orlando", "country": "United States of America", "cc": "US", "lat": 28.5119, "lon": -81.382}, {"name": "Orléans", "country": "France", "cc": "FR", "lat": 47.9004, "lon": 1.9}, {"name": "Oskemen", "country": "Kazakhstan", "cc": "KZ", "lat": 49.99, "lon": 82.6149}, {"name": "Oslo", "country": "Norway", "cc": "NO", "lat": 59.9186, "lon": 10.748}, {"name": "Otjiwarongo", "country": "Namibia", "cc": "NA", "lat": -20.4595, "lon": 16.64}, {"name": "Ottawa", "country": "Canada", "cc": "CA", "lat": 45.4186, "lon": -75.702}, {"name": "Ouagadougou", "country": "Burkina Faso", "cc": "BF", "lat": 12.3723, "lon": -1.5267}, {"name": "Oujda", "country": "Morocco", "cc": "MA", "lat": 34.69, "lon": -1.91}, {"name": "Padang", "country": "Indonesia", "cc": "ID", "lat": -0.9581, "lon": 100.3581}, {"name": "Pago Pago", "country": "American Samoa", "cc": "AS", "lat": -14.2766, "lon": -170.7066}, {"name": "Palana", "country": "Russia", "cc": "RU", "lat": 59.084, "lon": 159.95}, {"name": "Palembang", "country": "Indonesia", "cc": "ID", "lat": -2.9781, "lon": 104.7481}, {"name": "Palermo", "country": "Italy", "cc": "IT", "lat": 38.127, "lon": 13.3481}, {"name": "Palikir", "country": "Federated States of Micronesia", "cc": "FM", "lat": 6.9166, "lon": 158.15}, {"name": "Palmer Station", "country": "Antarctica", "cc": "AQ", "lat": -64.7624, "lon": -64.0469}, {"name": "Panama City", "country": "Panama", "cc": "PA", "lat": 8.97, "lon": -79.535}, {"name": "Papeete", "country": "French Polynesia", "cc": "PF", "lat": -17.5334, "lon": -149.5667}, {"name": "Parakou", "country": "Benin", "cc": "BJ", "lat": 9.34, "lon": 2.62}, {"name": "Paramaribo", "country": "Suriname", "cc": "SR", "lat": 5.835, "lon": -55.167}, {"name": "Parepare", "country": "Indonesia", "cc": "ID", "lat": -4.0167, "lon": 119.6333}, {"name": "Paris", "country": "France", "cc": "FR", "lat": 48.8686, "lon": 2.3314}, {"name": "Pasto", "country": "Colombia", "cc": "CO", "lat": 1.2136, "lon": -77.2811}, {"name": "Patna", "country": "India", "cc": "IN", "lat": 25.6269, "lon": 85.1281}, {"name": "Pavlodar", "country": "Kazakhstan", "cc": "KZ", "lat": 52.3, "lon": 76.95}, {"name": "Peace River", "country": "Canada", "cc": "CA", "lat": 56.2333, "lon": -117.2833}, {"name": "Pelotas", "country": "Brazil", "cc": "BR", "lat": -31.75, "lon": -52.33}, {"name": "Pemba", "country": "Mozambique", "cc": "MZ", "lat": -12.983, "lon": 40.5323}, {"name": "Penza", "country": "Russia", "cc": "RU", "lat": 53.18, "lon": 45.0}, {"name": "Perm", "country": "Russia", "cc": "RU", "lat": 58.0019, "lon": 56.248}, {"name": "Perth", "country": "Australia", "cc": "AU", "lat": -31.9531, "lon": 115.8381}, {"name": "Perugia", "country": "Italy", "cc": "IT", "lat": 43.1104, "lon": 12.39}, {"name": "Peshawar", "country": "Pakistan", "cc": "PK", "lat": 34.007, "lon": 71.5331}, {"name": "Peter I Island", "country": "Antarctica", "cc": "AQ", "lat": -68.7556, "lon": -90.5966}, {"name": "Petrolina", "country": "Brazil", "cc": "BR", "lat": -9.38, "lon": -40.51}, {"name": "Petropavlovsk Kamchatskiy", "country": "Russia", "cc": "RU", "lat": 53.062, "lon": 158.623}, {"name": "Petrozavodsk", "country": "Russia", "cc": "RU", "lat": 61.85, "lon": 34.28}, {"name": "Philadelphia", "country": "United States of America", "cc": "US", "lat": 40.0019, "lon": -75.1719}, {"name": "Phnom Penh", "country": "Cambodia", "cc": "KH", "lat": 11.552, "lon": 104.9147}, {"name": "Phoenix", "country": "United States of America", "cc": "US", "lat": 33.5419, "lon": -112.0719}, {"name": "Pierre", "country": "United States of America", "cc": "US", "lat": 44.3683, "lon": -100.3506}, {"name": "Pingxiang", "country": "China", "cc": "CN", "lat": 27.622, "lon": 113.8481}, {"name": "Pittsburgh", "country": "United States of America", "cc": "US", "lat": 40.4319, "lon": -80.0019}, {"name": "Piura", "country": "Peru", "cc": "PE", "lat": -5.21, "lon": -80.63}, {"name": "Podgorica", "country": "Montenegro", "cc": "ME", "lat": 42.466, "lon": 19.2663}, {"name": "Point Hope", "country": "United States of America", "cc": "US", "lat": 68.3477, "lon": -166.808}, {"name": "Pointe-Noire", "country": "Congo (Brazzaville)", "cc": "CG", "lat": -4.77, "lon": 11.88}, {"name": "Poitier", "country": "France", "cc": "FR", "lat": 46.5833, "lon": 0.3333}, {"name": "Pondicherry", "country": "India", "cc": "IN", "lat": 11.935, "lon": 79.83}, {"name": "Ponta Delgada", "country": "Portugal", "cc": "PT", "lat": 37.7483, "lon": -25.6666}, {"name": "Ponta Grossa", "country": "Brazil", "cc": "BR", "lat": -25.09, "lon": -50.16}, {"name": "Port Elizabeth", "country": "South Africa", "cc": "ZA", "lat": -33.9681, "lon": 25.5981}, {"name": "Port Harcourt", "country": "Nigeria", "cc": "NG", "lat": 4.8119, "lon": 7.0081}, {"name": "Port Hedland", "country": "Australia", "cc": "AU", "lat": -20.3104, "lon": 118.606}, {"name": "Port Lincoln", "country": "Australia", "cc": "AU", "lat": -34.7332, "lon": 135.8666}, {"name": "Port Louis", "country": "Mauritius", "cc": "MU", "lat": -20.1666, "lon": 57.5}, {"name": "Port Moresby", "country": "Papua New Guinea", "cc": "PG", "lat": -9.4647, "lon": 147.1925}, {"name": "Port Sudan", "country": "Sudan", "cc": "SD", "lat": 19.6158, "lon": 37.2164}, {"name": "Port Vila", "country": "Vanuatu", "cc": "VU", "lat": -17.7334, "lon": 168.3166}, {"name": "Port-Gentil", "country": "Gabon", "cc": "GA", "lat": -0.72, "lon": 8.78}, {"name": "Port-au-Prince", "country": "Haiti", "cc": "HT", "lat": 18.543, "lon": -72.338}, {"name": "Port-of-Spain", "country": "Trinidad and Tobago", "cc": "TT", "lat": 10.652, "lon": -61.517}, {"name": "Portland", "country": "Australia", "cc": "AU", "lat": -38.34, "lon": 141.59}, {"name": "Portland", "country": "United States of America", "cc": "US", "lat": 45.522, "lon": -122.6819}, {"name": "Porto Alegre", "country": "Brazil", "cc": "BR", "lat": -30.0481, "lon": -51.202}, {"name": "Porto Velho", "country": "Brazil", "cc": "BR", "lat": -8.75, "lon": -63.9}, {"name": "Porto-Novo", "country": "Benin", "cc": "BJ", "lat": 6.4833, "lon": 2.6166}, {"name": "Posadas", "country": "Argentina", "cc": "AR", "lat": -27.3578, "lon": -55.8851}, {"name": "Potenza", "country": "Italy", "cc": "IT", "lat": 40.642, "lon": 15.799}, {"name": "Prague", "country": "Czech Republic", "cc": "CZ", "lat": 50.0853, "lon": 14.464}, {"name": "Praia", "country": "Cape Verde", "cc": "CV", "lat": 14.9167, "lon": -23.5167}, {"name": "Pretoria", "country": "South Africa", "cc": "ZA", "lat": -25.705, "lon": 28.2275}, {"name": "Prince Rupert", "country": "Canada", "cc": "CA", "lat": 54.3167, "lon": -130.33}, {"name": "Pristina", "country": "Kosovo", "cc": "-99", "lat": 42.6667, "lon": 21.166}, {"name": "Prudhoe Bay", "country": "United States of America", "cc": "US", "lat": 70.2922, "lon": -148.6694}, {"name": "Pskov", "country": "Russia", "cc": "RU", "lat": 57.83, "lon": 28.3299}, {"name": "Pucallpa", "country": "Peru", "cc": "PE", "lat": -8.3689, "lon": -74.535}, {"name": "Puebla", "country": "Mexico", "cc": "MX", "lat": 19.0519, "lon": -98.202}, {"name": "Puerto Ayacucho", "country": "Venezuela", "cc": "VE", "lat": 5.6639, "lon": -67.6236}, {"name": "Puerto Deseado", "country": "Argentina", "cc": "AR", "lat": -47.75, "lon": -65.9}, {"name": "Puerto Limon", "country": "Costa Rica", "cc": "CR", "lat": 10.0, "lon": -83.0333}, {"name": "Puerto Montt", "country": "Chile", "cc": "CL", "lat": -41.47, "lon": -72.93}, {"name": "Pune", "country": "India", "cc": "IN", "lat": 18.532, "lon": 73.8481}, {"name": "Punta Arenas", "country": "Chile", "cc": "CL", "lat": -53.165, "lon": -70.94}, {"name": "Putrajaya", "country": "Malaysia", "cc": "MY", "lat": 2.914, "lon": 101.7019}, {"name": "Pyongyang", "country": "North Korea", "cc": "KP", "lat": 39.0214, "lon": 125.7527}, {"name": "Qaanaaq", "country": "Greenland", "cc": "GL", "lat": 77.4835, "lon": -69.3322}, {"name": "Qaraghandy", "country": "Kazakhstan", "cc": "KZ", "lat": 49.885, "lon": 73.115}, {"name": "Qingdao", "country": "China", "cc": "CN", "lat": 36.0919, "lon": 120.3281}, {"name": "Qiqihar", "country": "China", "cc": "CN", "lat": 47.3469, "lon": 123.988}, {"name": "Quanzhou", "country": "China", "cc": "CN", "lat": 24.902, "lon": 118.578}, {"name": "Quelimane", "country": "Mozambique", "cc": "MZ", "lat": -17.88, "lon": 36.89}, {"name": "Quetta", "country": "Pakistan", "cc": "PK", "lat": 30.2219, "lon": 67.023}, {"name": "Quetzaltenango", "country": "Guatemala", "cc": "GT", "lat": 14.83, "lon": -91.52}, {"name": "Quito", "country": "Ecuador", "cc": "EC", "lat": -0.213, "lon": -78.502}, {"name": "Québec", "country": "Canada", "cc": "CA", "lat": 46.84, "lon": -71.2456}, {"name": "Qyzylorda", "country": "Kazakhstan", "cc": "KZ", "lat": 44.8, "lon": 65.465}, {"name": "Raba", "country": "Indonesia", "cc": "ID", "lat": -8.45, "lon": 118.7666}, {"name": "Rabat", "country": "Morocco", "cc": "MA", "lat": 34.0253, "lon": -6.8364}, {"name": "Rabaul", "country": "Papua New Guinea", "cc": "PG", "lat": -4.2055, "lon": 152.1434}, {"name": "Raipur", "country": "India", "cc": "IN", "lat": 21.2369, "lon": 81.6331}, {"name": "Rajkot", "country": "India", "cc": "IN", "lat": 22.312, "lon": 70.7981}, {"name": "Rajshahi", "country": "Bangladesh", "cc": "BD", "lat": 24.3769, "lon": 88.6031}, {"name": "Raleigh", "country": "United States of America", "cc": "US", "lat": 35.8188, "lon": -78.6447}, {"name": "Ramallah", "country": "Palestine", "cc": "PS", "lat": 31.9029, "lon": 35.2062}, {"name": "Ranchi", "country": "India", "cc": "IN", "lat": 23.372, "lon": 85.3281}, {"name": "Rangoon", "country": "Myanmar", "cc": "MM", "lat": 16.7853, "lon": 96.1647}, {"name": "Rawson", "country": "Argentina", "cc": "AR", "lat": -43.3, "lon": -65.1}, {"name": "Recife", "country": "Brazil", "cc": "BR", "lat": -8.0737, "lon": -34.9176}, {"name": "Regina", "country": "Canada", "cc": "CA", "lat": 50.45, "lon": -104.617}, {"name": "Reims", "country": "France", "cc": "FR", "lat": 49.2504, "lon": 4.03}, {"name": "Rennes", "country": "France", "cc": "FR", "lat": 48.1, "lon": -1.67}, {"name": "Reno", "country": "United States of America", "cc": "US", "lat": 39.53, "lon": -119.82}, {"name": "Resolute", "country": "Canada", "cc": "CA", "lat": 74.6833, "lon": -94.9}, {"name": "Reykjavík", "country": "Iceland", "cc": "IS", "lat": 64.15, "lon": -21.95}, {"name": "Ribeirão Preto", "country": "Brazil", "cc": "BR", "lat": -21.17, "lon": -47.83}, {"name": "Riberalta", "country": "Bolivia", "cc": "BO", "lat": -10.983, "lon": -66.1}, {"name": "Richmond", "country": "United States of America", "cc": "US", "lat": 37.552, "lon": -77.4519}, {"name": "Riga", "country": "Latvia", "cc": "LV", "lat": 56.95, "lon": 24.1}, {"name": "Rio Branco", "country": "Brazil", "cc": "BR", "lat": -9.9666, "lon": -67.8}, {"name": "Rio de Janeiro", "country": "Brazil", "cc": "BR", "lat": -22.9231, "lon": -43.227}, {"name": "Riyadh", "country": "Saudi Arabia", "cc": "SA", "lat": 24.6428, "lon": 46.7708}, {"name": "Rochester", "country": "United States of America", "cc": "US", "lat": 43.1724, "lon": -77.6219}, {"name": "Rockhampton", "country": "Australia", "cc": "AU", "lat": -23.3639, "lon": 150.52}, {"name": "Rome", "country": "Italy", "cc": "IT", "lat": 41.8979, "lon": 12.4813}, {"name": "Rosario", "country": "Argentina", "cc": "AR", "lat": -32.9492, "lon": -60.6683}, {"name": "Roseau", "country": "Dominica", "cc": "DM", "lat": 15.301, "lon": -61.387}, {"name": "Rostov", "country": "Russia", "cc": "RU", "lat": 47.2366, "lon": 39.7107}, {"name": "Rothera Station", "country": "Antarctica", "cc": "AQ", "lat": -67.5648, "lon": -68.1235}, {"name": "Rouen", "country": "France", "cc": "FR", "lat": 49.4304, "lon": 1.08}, {"name": "Rovaniemi", "country": "Finland", "cc": "FI", "lat": 66.5, "lon": 25.7159}, {"name": "Rudny", "country": "Kazakhstan", "cc": "KZ", "lat": 52.9527, "lon": 63.13}, {"name": "Ryazan", "country": "Russia", "cc": "RU", "lat": 54.62, "lon": 39.72}, {"name": "Río Gallegos", "country": "Argentina", "cc": "AR", "lat": -51.6333, "lon": -69.2166}, {"name": "Sabha", "country": "Libya", "cc": "LY", "lat": 27.0333, "lon": 14.4333}, {"name": "Sacramento", "country": "United States of America", "cc": "US", "lat": 38.577, "lon": -121.472}, {"name": "Safi", "country": "Morocco", "cc": "MA", "lat": 32.32, "lon": -9.24}, {"name": "Saharanpur", "country": "India", "cc": "IN", "lat": 29.97, "lon": 77.55}, {"name": "Saint George's", "country": "Grenada", "cc": "GD", "lat": 12.0526, "lon": -61.7416}, {"name": "Saint John's", "country": "Antigua and Barbuda", "cc": "AG", "lat": 17.118, "lon": -61.85}, {"name": "Saint-Laurent-du-Maroni", "country": "France", "cc": "GF", "lat": 5.4976, "lon": -54.0325}, {"name": "Sakata", "country": "Japan", "cc": "JP", "lat": 38.92, "lon": 139.8501}, {"name": "Salem", "country": "United States of America", "cc": "US", "lat": 44.9281, "lon": -123.0239}, {"name": "Salem", "country": "India", "cc": "IN", "lat": 11.6719, "lon": 78.1781}, {"name": "Salt Lake City", "country": "United States of America", "cc": "US", "lat": 40.777, "lon": -111.932}, {"name": "Salta", "country": "Argentina", "cc": "AR", "lat": -24.7834, "lon": -65.4166}, {"name": "Salvador", "country": "Brazil", "cc": "BR", "lat": -12.968, "lon": -38.4819}, {"name": "Samara", "country": "Russia", "cc": "RU", "lat": 53.197, "lon": 50.1493}, {"name": "Samarqand", "country": "Uzbekistan", "cc": "UZ", "lat": 39.67, "lon": 66.945}, {"name": "Samsun", "country": "Turkey", "cc": "TR", "lat": 41.28, "lon": 36.3437}, {"name": "San Antonio", "country": "United States of America", "cc": "US", "lat": 29.4893, "lon": -98.5093}, {"name": "San Bernardino", "country": "United States of America", "cc": "US", "lat": 34.1223, "lon": -117.302}, {"name": "San Carlos de Bariloche", "country": "Argentina", "cc": "AR", "lat": -41.15, "lon": -71.3}, {"name": "San Cristóbal", "country": "Venezuela", "cc": "VE", "lat": 7.77, "lon": -72.25}, {"name": "San Diego", "country": "United States of America", "cc": "US", "lat": 32.822, "lon": -117.1819}, {"name": "San Francisco", "country": "United States of America", "cc": "US", "lat": 37.7692, "lon": -122.4172}, {"name": "San Jose", "country": "United States of America", "cc": "US", "lat": 37.3019, "lon": -121.8519}, {"name": "San José", "country": "Costa Rica", "cc": "CR", "lat": 9.937, "lon": -84.086}, {"name": "San Juan", "country": "Argentina", "cc": "AR", "lat": -31.55, "lon": -68.52}, {"name": "San Juan", "country": "Puerto Rico", "cc": "PR", "lat": 18.44, "lon": -66.13}, {"name": "San Luis Potosí", "country": "Mexico", "cc": "MX", "lat": 22.1719, "lon": -101.0019}, {"name": "San Marino", "country": "San Marino", "cc": "SM", "lat": 43.9361, "lon": 12.4418}, {"name": "San Martín Base", "country": "Antarctica", "cc": "AQ", "lat": -68.1163, "lon": -67.1}, {"name": "San Salvador", "country": "El Salvador", "cc": "SV", "lat": 13.7119, "lon": -89.205}, {"name": "Sanaa", "country": "Yemen", "cc": "YE", "lat": 15.3567, "lon": 44.2046}, {"name": "Santa Barbara", "country": "United States of America", "cc": "US", "lat": 34.435, "lon": -119.72}, {"name": "Santa Cruz", "country": "Ecuador", "cc": "EC", "lat": -0.5333, "lon": -90.35}, {"name": "Santa Cruz", "country": "Bolivia", "cc": "BO", "lat": -17.752, "lon": -63.2279}, {"name": "Santa Fe", "country": "Argentina", "cc": "AR", "lat": -31.6239, "lon": -60.69}, {"name": "Santa Fe", "country": "United States of America", "cc": "US", "lat": 35.6869, "lon": -105.9372}, {"name": "Santa Rosa", "country": "Argentina", "cc": "AR", "lat": -36.62, "lon": -64.3}, {"name": "Santarém", "country": "Brazil", "cc": "BR", "lat": -2.4333, "lon": -54.7}, {"name": "Santiago", "country": "Dominican Republic", "cc": "DO", "lat": 19.5, "lon": -70.67}, {"name": "Santiago", "country": "Chile", "cc": "CL", "lat": -33.4481, "lon": -70.669}, {"name": "Santiago de Cuba", "country": "Cuba", "cc": "CU", "lat": 20.025, "lon": -75.8213}, {"name": "Santo Domingo", "country": "Dominican Republic", "cc": "DO", "lat": 18.472, "lon": -69.902}, {"name": "Sapporo", "country": "Japan", "cc": "JP", "lat": 43.0769, "lon": 141.3381}, {"name": "Sarajevo", "country": "Bosnia and Herzegovina", "cc": "BA", "lat": 43.85, "lon": 18.383}, {"name": "Saratov", "country": "Russia", "cc": "RU", "lat": 51.5819, "lon": 46.0281}, {"name": "Saskatoon", "country": "Canada", "cc": "CA", "lat": 52.17, "lon": -106.67}, {"name": "Sault Ste. Marie", "country": "United States of America", "cc": "US", "lat": 46.4953, "lon": -84.3453}, {"name": "Savannah", "country": "United States of America", "cc": "US", "lat": 32.0211, "lon": -81.11}, {"name": "Scott Base", "country": "Antarctica", "cc": "AQ", "lat": -77.8469, "lon": 166.7491}, {"name": "Seattle", "country": "United States of America", "cc": "US", "lat": 47.5719, "lon": -122.3419}, {"name": "Semarang", "country": "Indonesia", "cc": "ID", "lat": -6.9647, "lon": 110.4181}, {"name": "Semey", "country": "Kazakhstan", "cc": "KZ", "lat": 50.435, "lon": 80.275}, {"name": "Sendai", "country": "Japan", "cc": "JP", "lat": 38.2891, "lon": 141.0198}, {"name": "Seoul", "country": "South Korea", "cc": "KR", "lat": 37.5683, "lon": 126.9978}, {"name": "Serowe", "country": "Botswana", "cc": "BW", "lat": -22.39, "lon": 26.71}, {"name": "Sevastapol", "country": "Russia", "cc": "RU", "lat": 44.6, "lon": 33.465}, {"name": "Seville", "country": "Spain", "cc": "ES", "lat": 37.405, "lon": -5.98}, {"name": "Shache", "country": "China", "cc": "CN", "lat": 38.4261, "lon": 77.25}, {"name": "Shanghai", "country": "China", "cc": "CN", "lat": 31.2184, "lon": 121.4346}, {"name": "Shantou", "country": "China", "cc": "CN", "lat": 23.372, "lon": 116.6681}, {"name": "Shaoguan", "country": "China", "cc": "CN", "lat": 24.8, "lon": 113.58}, {"name": "Shenyeng", "country": "China", "cc": "CN", "lat": 41.8069, "lon": 123.448}, {"name": "Shenzhen", "country": "China", "cc": "CN", "lat": 22.5543, "lon": 114.1202}, {"name": "Shijianzhuang", "country": "China", "cc": "CN", "lat": 38.052, "lon": 114.478}, {"name": "Shiraz", "country": "Iran", "cc": "IR", "lat": 29.6319, "lon": 52.5681}, {"name": "Shizuishan", "country": "China", "cc": "CN", "lat": 39.2333, "lon": 106.769}, {"name": "Sholapur", "country": "India", "cc": "IN", "lat": 17.6724, "lon": 75.8981}, {"name": "Showa Station", "country": "Antarctica", "cc": "AQ", "lat": -69.0304, "lon": 39.7461}, {"name": "Shreveport", "country": "United States of America", "cc": "US", "lat": 32.5, "lon": -93.77}, {"name": "Shymkent", "country": "Kazakhstan", "cc": "KZ", "lat": 42.32, "lon": 69.595}, {"name": "Siem Reap", "country": "Cambodia", "cc": "KH", "lat": 13.3666, "lon": 103.85}, {"name": "Signy Research Station", "country": "Antarctica", "cc": "AQ", "lat": -60.6313, "lon": -45.6007}, {"name": "Singapore", "country": "Singapore", "cc": "SG", "lat": 1.295, "lon": 103.8539}, {"name": "Sinuiju", "country": "North Korea", "cc": "KP", "lat": 40.0859, "lon": 124.4213}, {"name": "Sioux Falls", "country": "United States of America", "cc": "US", "lat": 43.55, "lon": -96.73}, {"name": "Sisimiut", "country": "Greenland", "cc": "GL", "lat": 66.95, "lon": -53.6666}, {"name": "Sitka", "country": "United States of America", "cc": "US", "lat": 57.0604, "lon": -135.3275}, {"name": "Sittwe", "country": "Myanmar", "cc": "MM", "lat": 20.14, "lon": 92.88}, {"name": "Skopje", "country": "Macedonia", "cc": "MK", "lat": 42.0, "lon": 21.4335}, {"name": "Smolensk", "country": "Russia", "cc": "RU", "lat": 54.7827, "lon": 32.0473}, {"name": "Sobral Base", "country": "Antarctica", "cc": "AQ", "lat": -81.1791, "lon": -40.5015}, {"name": "Sochi", "country": "Russia", "cc": "RU", "lat": 43.59, "lon": 39.73}, {"name": "Sofia", "country": "Bulgaria", "cc": "BG", "lat": 42.6853, "lon": 23.3147}, {"name": "Sokoto", "country": "Nigeria", "cc": "NG", "lat": 13.06, "lon": 5.24}, {"name": "Sorocaba", "country": "Brazil", "cc": "BR", "lat": -23.49, "lon": -47.47}, {"name": "Sousse", "country": "Tunisia", "cc": "TN", "lat": 35.83, "lon": 10.625}, {"name": "Spokane", "country": "United States of America", "cc": "US", "lat": 47.67, "lon": -117.4199}, {"name": "Springbok", "country": "South Africa", "cc": "ZA", "lat": -29.6667, "lon": 17.8833}, {"name": "Sri Jawewardenepura Kotte", "country": "Sri Lanka", "cc": "LK", "lat": 6.9, "lon": 79.95}, {"name": "Srinagar", "country": "India", "cc": "IN", "lat": 34.1019, "lon": 74.8131}, {"name": "St. John's", "country": "Canada", "cc": "CA", "lat": 47.585, "lon": -52.681}, {"name": "St. Louis", "country": "United States of America", "cc": "US", "lat": 38.637, "lon": -90.2419}, {"name": "St. Paul", "country": "United States of America", "cc": "US", "lat": 44.944, "lon": -93.085}, {"name": "St. Petersburg", "country": "Russia", "cc": "RU", "lat": 59.941, "lon": 30.3141}, {"name": "St.-Denis", "country": "France", "cc": "RE", "lat": -20.8789, "lon": 55.4481}, {"name": "Stanley", "country": "Falkland Islands", "cc": "FK", "lat": -51.7, "lon": -57.85}, {"name": "Stavropol", "country": "Russia", "cc": "RU", "lat": 45.05, "lon": 41.98}, {"name": "Stockholm", "country": "Sweden", "cc": "SE", "lat": 59.3527, "lon": 18.0954}, {"name": "Strasbourg", "country": "France", "cc": "FR", "lat": 48.58, "lon": 7.75}, {"name": "Sucre", "country": "Bolivia", "cc": "BO", "lat": -19.041, "lon": -65.2595}, {"name": "Suez", "country": "Egypt", "cc": "EG", "lat": 30.005, "lon": 32.5499}, {"name": "Sukhumi", "country": "Georgia", "cc": "GE", "lat": 43.02, "lon": 41.02}, {"name": "Sundsvall", "country": "Sweden", "cc": "SE", "lat": 62.4001, "lon": 17.3167}, {"name": "Surabaya", "country": "Indonesia", "cc": "ID", "lat": -7.2473, "lon": 112.7489}, {"name": "Surakarta", "country": "Indonesia", "cc": "ID", "lat": -7.565, "lon": 110.825}, {"name": "Surat", "country": "India", "cc": "IN", "lat": 21.2019, "lon": 72.8381}, {"name": "Surat Thani", "country": "Thailand", "cc": "TH", "lat": 9.1501, "lon": 99.3401}, {"name": "Surgut", "country": "Russia", "cc": "RU", "lat": 61.2599, "lon": 73.425}, {"name": "Suva", "country": "Fiji", "cc": "FJ", "lat": -18.133, "lon": 178.4417}, {"name": "Suzhou", "country": "China", "cc": "CN", "lat": 31.3024, "lon": 120.6181}, {"name": "Suzhou", "country": "China", "cc": "CN", "lat": 33.6381, "lon": 116.9769}, {"name": "Svea Station", "country": "Antarctica", "cc": "AQ", "lat": -74.5829, "lon": -11.2167}, {"name": "Swakopmund", "country": "Namibia", "cc": "NA", "lat": -22.6689, "lon": 14.535}, {"name": "Sydney", "country": "Canada", "cc": "CA", "lat": 46.0661, "lon": -60.18}, {"name": "Sydney", "country": "Australia", "cc": "AU", "lat": -33.9181, "lon": 151.1832}, {"name": "Syracuse", "country": "United States of America", "cc": "US", "lat": 43.05, "lon": -76.15}, {"name": "São Luís", "country": "Brazil", "cc": "BR", "lat": -2.514, "lon": -44.2679}, {"name": "São Paulo", "country": "Brazil", "cc": "BR", "lat": -23.5567, "lon": -46.627}, {"name": "São Tomé", "country": "Sao Tome and Principe", "cc": "ST", "lat": 0.3334, "lon": 6.7333}, {"name": "Ségou", "country": "Mali", "cc": "ML", "lat": 13.44, "lon": -6.26}, {"name": "Tabriz", "country": "Iran", "cc": "IR", "lat": 38.0882, "lon": 46.2993}, {"name": "Tabuk", "country": "Saudi Arabia", "cc": "SA", "lat": 28.3838, "lon": 36.555}, {"name": "Tacna", "country": "Peru", "cc": "PE", "lat": -18.0, "lon": -70.25}, {"name": "Tahoua", "country": "Niger", "cc": "NE", "lat": 14.9, "lon": 5.2599}, {"name": "Taichung", "country": "Taiwan", "cc": "TW", "lat": 24.1521, "lon": 120.6817}, {"name": "Taipei", "country": "Taiwan", "cc": "TW", "lat": 25.0358, "lon": 121.5683}, {"name": "Taiyuan", "country": "China", "cc": "CN", "lat": 37.877, "lon": 112.5431}, {"name": "Taizz", "country": "Yemen", "cc": "YE", "lat": 13.6064, "lon": 44.0375}, {"name": "Tallahassee", "country": "United States of America", "cc": "US", "lat": 30.45, "lon": -84.28}, {"name": "Tallinn", "country": "Estonia", "cc": "EE", "lat": 59.4339, "lon": 24.728}, {"name": "Taloyoak", "country": "Canada", "cc": "CA", "lat": 69.5333, "lon": -93.5333}, {"name": "Tamanrasset", "country": "Algeria", "cc": "DZ", "lat": 22.785, "lon": 5.5228}, {"name": "Tampa", "country": "United States of America", "cc": "US", "lat": 27.9489, "lon": -82.4606}, {"name": "Tampere", "country": "Finland", "cc": "FI", "lat": 61.5, "lon": 23.75}, {"name": "Tampico", "country": "Mexico", "cc": "MX", "lat": 22.3, "lon": -97.87}, {"name": "Tanjungpandan", "country": "Indonesia", "cc": "ID", "lat": -2.75, "lon": 107.65}, {"name": "Tarakan", "country": "Indonesia", "cc": "ID", "lat": 3.3, "lon": 117.633}, {"name": "Tarawa", "country": "Kiribati", "cc": "KI", "lat": 1.3382, "lon": 173.0176}, {"name": "Taraz", "country": "Kazakhstan", "cc": "KZ", "lat": 42.9, "lon": 71.365}, {"name": "Tarija", "country": "Bolivia", "cc": "BO", "lat": -21.5167, "lon": -64.75}, {"name": "Tashkent", "country": "Uzbekistan", "cc": "UZ", "lat": 41.3136, "lon": 69.293}, {"name": "Tbilisi", "country": "Georgia", "cc": "GE", "lat": 41.727, "lon": 44.7888}, {"name": "Tegucigalpa", "country": "Honduras", "cc": "HN", "lat": 14.104, "lon": -87.2195}, {"name": "Tehran", "country": "Iran", "cc": "IR", "lat": 35.6739, "lon": 51.4224}, {"name": "Tel Aviv-Yafo", "country": "Israel", "cc": "IL", "lat": 32.0819, "lon": 34.7681}, {"name": "Teresina", "country": "Brazil", "cc": "BR", "lat": -5.0931, "lon": -42.782}, {"name": "Ternate", "country": "Indonesia", "cc": "ID", "lat": 0.793, "lon": 127.363}, {"name": "Tete", "country": "Mozambique", "cc": "MZ", "lat": -16.17, "lon": 33.58}, {"name": "The Hague", "country": "Netherlands", "cc": "NL", "lat": 52.08, "lon": 4.27}, {"name": "Thessaloniki", "country": "Greece", "cc": "GR", "lat": 40.6981, "lon": 22.8831}, {"name": "Thimphu", "country": "Bhutan", "cc": "BT", "lat": 27.473, "lon": 89.639}, {"name": "Thiruvananthapuram", "country": "India", "cc": "IN", "lat": 8.5019, "lon": 76.9481}, {"name": "Thompson", "country": "Canada", "cc": "CA", "lat": 55.7499, "lon": -97.8666}, {"name": "Thunder Bay", "country": "Canada", "cc": "CA", "lat": 48.4462, "lon": -89.275}, {"name": "Tianjin", "country": "China", "cc": "CN", "lat": 39.132, "lon": 117.1981}, {"name": "Tianshui", "country": "China", "cc": "CN", "lat": 34.602, "lon": 105.918}, {"name": "Tijuana", "country": "Mexico", "cc": "MX", "lat": 32.502, "lon": -117.0819}, {"name": "Tiksi", "country": "Russia", "cc": "RU", "lat": 71.6269, "lon": 128.835}, {"name": "Timbuktu", "country": "Mali", "cc": "ML", "lat": 16.7666, "lon": -3.0166}, {"name": "Timmins", "country": "Canada", "cc": "CA", "lat": 48.4666, "lon": -81.3333}, {"name": "Tirana", "country": "Albania", "cc": "AL", "lat": 41.3275, "lon": 19.8189}, {"name": "Tiruchirappalli", "country": "India", "cc": "IN", "lat": 10.8119, "lon": 78.688}, {"name": "Tmassah", "country": "Libya", "cc": "LY", "lat": 26.3666, "lon": 15.8}, {"name": "Tokyo", "country": "Japan", "cc": "JP", "lat": 35.687, "lon": 139.7495}, {"name": "Toliara", "country": "Madagascar", "cc": "MG", "lat": -23.3568, "lon": 43.69}, {"name": "Tomsk", "country": "Russia", "cc": "RU", "lat": 56.495, "lon": 84.975}, {"name": "Tongliao", "country": "China", "cc": "CN", "lat": 43.6219, "lon": 122.268}, {"name": "Topeka", "country": "United States of America", "cc": "US", "lat": 39.05, "lon": -95.67},